{
   "type": "FeatureCollection",
   "features": [
  {
    "type": "Feature",
    "geometry": {
       "type": "Point",
       "coordinates":  [ 121.426967957964,24.9902125620239 ]
    },
    "properties": {
    "name":"同盈藥師藥局",
    "addr":"新北市板橋區溪北路30號1樓",
    "district":"板橋區",
    "phone":"02-86873400"
    }
  },
  {
    "type": "Feature",
    "geometry": {
       "type": "Point",
       "coordinates":  [ 121.325846168974,24.9720495751163 ]
    },
    "properties": {
    "name":"鶯歌藥局",
    "addr":"新北市鶯歌區鶯桃路2段11號1樓",
    "district":"鶯歌區",
    "phone":"02-86778778"
    }
  },
  {
    "type": "Feature",
    "geometry": {
       "type": "Point",
       "coordinates":  [ 121.662873931029,25.0675291609606 ]
    },
    "properties": {
    "name":"益嘉藥局",
    "addr":"新北市汐止區忠孝東路245號1樓",
    "district":"汐止區",
    "phone":"02-86423527"
    }
  },
  {
    "type": "Feature",
    "geometry": {
       "type": "Point",
       "coordinates":  [ 121.437694601127,25.0851454243201 ]
    },
    "properties": {
    "name":"明月藥局",
    "addr":"新北市五股區工商路89號",
    "district":"五股區",
    "phone":"02-82956028"
    }
  },
  {
    "type": "Feature",
    "geometry": {
       "type": "Point",
       "coordinates":  [ 121.437889702958,25.0836052267911 ]
    },
    "properties": {
    "name":"源昇藥局",
    "addr":"新北市五股區五股里成泰路2段61號2樓",
    "district":"五股區",
    "phone":"02-82950772"
    }
  },
  {
    "type": "Feature",
    "geometry": {
       "type": "Point",
       "coordinates":  [ 121.437956024436,25.0837220466822 ]
    },
    "properties": {
    "name":"東興藥局",
    "addr":"新北市五股區成泰路2段69號2樓",
    "district":"五股區",
    "phone":"02-82922718"
    }
  },
  {
    "type": "Feature",
    "geometry": {
       "type": "Point",
       "coordinates":  [ 121.434000896696,25.0892289757237 ]
    },
    "properties": {
    "name":"祐康藥師藥局",
    "addr":"新北市五股區五福路36號1樓",
    "district":"五股區",
    "phone":"02-82921335"
    }
  },
  {
    "type": "Feature",
    "geometry": {
       "type": "Point",
       "coordinates":  [ 121.486336174425,25.0873129865052 ]
    },
    "properties": {
    "name":"捷元健保藥局",
    "addr":"新北市三重區三賢街185號1樓",
    "district":"三重區",
    "phone":"02-82877107"
    }
  },
  {
    "type": "Feature",
    "geometry": {
       "type": "Point",
       "coordinates":  [ 121.499375203647,25.0049407588624 ]
    },
    "properties": {
    "name":"康荃優生保健藥局",
    "addr":"新北市中和區福祥路66號1樓",
    "district":"中和區",
    "phone":"02-66348688"
    }
  },
  {
    "type": "Feature",
    "geometry": {
       "type": "Point",
       "coordinates":  [ 121.494371388068,25.0708303392846 ]
    },
    "properties": {
    "name":"幸福藥妝藥局",
    "addr":"新北市三重區正義北路342號1樓",
    "district":"三重區",
    "phone":"02-29896858"
    }
  },
  {
    "type": "Feature",
    "geometry": {
       "type": "Point",
       "coordinates":  [ 121.483577347122,25.0622530803931 ]
    },
    "properties": {
    "name":"兒安藥局",
    "addr":"新北市三重區中華路59號",
    "district":"三重區",
    "phone":"02-29895851"
    }
  },
  {
    "type": "Feature",
    "geometry": {
       "type": "Point",
       "coordinates":  [ 121.496713216335,25.0657127278376 ]
    },
    "properties": {
    "name":"聖美膚藥局",
    "addr":"新北市三重區正義北路130號",
    "district":"三重區",
    "phone":"02-29863456"
    }
  },
  {
    "type": "Feature",
    "geometry": {
       "type": "Point",
       "coordinates":  [ 121.495393690027,25.0620724261721 ]
    },
    "properties": {
    "name":"天佑藥局",
    "addr":"新北市三重區大同北路8號1樓、10號1樓",
    "district":"三重區",
    "phone":"02-29857456"
    }
  },
  {
    "type": "Feature",
    "geometry": {
       "type": "Point",
       "coordinates":  [ 121.490632374013,25.0689350560967 ]
    },
    "properties": {
    "name":"欽勝藥局",
    "addr":"新北市三重區重陽路4段6號2樓",
    "district":"三重區",
    "phone":"02-29857389"
    }
  },
  {
    "type": "Feature",
    "geometry": {
       "type": "Point",
       "coordinates":  [ 121.4560247767,25.006620031086 ]
    },
    "properties": {
    "name":"可安藥局",
    "addr":"新北市板橋區南雅南路1段8-6號1樓",
    "district":"板橋區",
    "phone":"02-29650131"
    }
  },
  {
    "type": "Feature",
    "geometry": {
       "type": "Point",
       "coordinates":  [ 121.424219460356,25.0390572854767 ]
    },
    "properties": {
    "name":"仁安藥局",
    "addr":"新北市泰山區明志路3段174號",
    "district":"泰山區",
    "phone":"02-29015586"
    }
  },
  {
    "type": "Feature",
    "geometry": {
       "type": "Point",
       "coordinates":  [ 121.462257406928,25.0806303461791 ]
    },
    "properties": {
    "name":"健群藥局",
    "addr":"新北市蘆洲區中華街71號2樓",
    "district":"蘆洲區",
    "phone":"02-28483575"
    }
  },
  {
    "type": "Feature",
    "geometry": {
       "type": "Point",
       "coordinates":  [ 121.648209839369,25.060720191016 ]
    },
    "properties": {
    "name":"富康東科藥局",
    "addr":"新北市汐止區新台五路1段96號C棟1樓C15號",
    "district":"汐止區",
    "phone":"02-26969222"
    }
  },
  {
    "type": "Feature",
    "geometry": {
       "type": "Point",
       "coordinates":  [ 121.630784633718,25.0704258251072 ]
    },
    "properties": {
    "name":"佳恩藥局",
    "addr":"新北市汐止區民族三街7-1號1樓",
    "district":"汐止區",
    "phone":"02-26950714"
    }
  },
  {
    "type": "Feature",
    "geometry": {
       "type": "Point",
       "coordinates":  [ 121.368616334537,24.9360710794374 ]
    },
    "properties": {
    "name":"三峽文化藥局",
    "addr":"新北市三峽區文化路212-2號",
    "district":"三峽區",
    "phone":"02-26710825"
    }
  },
  {
    "type": "Feature",
    "geometry": {
       "type": "Point",
       "coordinates":  [ 121.631023944208,25.0549912823232 ]
    },
    "properties": {
    "name":"健康晨光藥局",
    "addr":"新北市汐止區大同路2段516號1樓",
    "district":"汐止區",
    "phone":"02-26433111"
    }
  },
  {
    "type": "Feature",
    "geometry": {
       "type": "Point",
       "coordinates":  [ 121.661762574954,25.0731963377446 ]
    },
    "properties": {
    "name":"國升藥局",
    "addr":"新北市汐止區建成路59巷1號1樓",
    "district":"汐止區",
    "phone":"02-26419459"
    }
  },
  {
    "type": "Feature",
    "geometry": {
       "type": "Point",
       "coordinates":  [ 121.40114924532,25.1480629902181 ]
    },
    "properties": {
    "name":"逸華藥局",
    "addr":"新北市八里區中山路2段301號",
    "district":"八里區",
    "phone":"02-26105093"
    }
  },
  {
    "type": "Feature",
    "geometry": {
       "type": "Point",
       "coordinates":  [ 121.378187420674,25.0847619866754 ]
    },
    "properties": {
    "name":"茂晟藥局",
    "addr":"新北市林口區文化三路2段328號1樓",
    "district":"林口區",
    "phone":"02-26020593"
    }
  },
  {
    "type": "Feature",
    "geometry": {
       "type": "Point",
       "coordinates":  [ 121.805480939317,25.1081867365098 ]
    },
    "properties": {
    "name":"長興堂藥局",
    "addr":"新北市瑞芳區明燈路3段69號1樓",
    "district":"瑞芳區",
    "phone":"02-24972050"
    }
  },
  {
    "type": "Feature",
    "geometry": {
       "type": "Point",
       "coordinates":  [ 121.689479516,25.1779824055 ]
    },
    "properties": {
    "name":"北海岸藥局",
    "addr":"新北市萬里區瑪鍊路98號",
    "district":"萬里區",
    "phone":"02-24922022"
    }
  },
  {
    "type": "Feature",
    "geometry": {
       "type": "Point",
       "coordinates":  [ 121.433540391171,25.0897272770434 ]
    },
    "properties": {
    "name":"陽光健保藥局",
    "addr":"新北市五股區五福路54號1樓",
    "district":"五股區",
    "phone":"02-22922400"
    }
  },
  {
    "type": "Feature",
    "geometry": {
       "type": "Point",
       "coordinates":  [ 121.432085279606,25.0703198926704 ]
    },
    "properties": {
    "name":"杏軒藥局",
    "addr":"新北市五股區貿商里自強路152號1樓",
    "district":"五股區",
    "phone":"02-22921193"
    }
  },
  {
    "type": "Feature",
    "geometry": {
       "type": "Point",
       "coordinates":  [ 121.483939141191,25.0783772945839 ]
    },
    "properties": {
    "name":"銘泰藥局",
    "addr":"新北市三重區三和路4段153號2樓",
    "district":"三重區",
    "phone":"02-22876452"
    }
  },
  {
    "type": "Feature",
    "geometry": {
       "type": "Point",
       "coordinates":  [ 121.471671286296,25.0818646680626 ]
    },
    "properties": {
    "name":"廣英藥師藥局",
    "addr":"新北市蘆洲區中正路6號1樓",
    "district":"蘆洲區",
    "phone":"02-22835713"
    }
  },
  {
    "type": "Feature",
    "geometry": {
       "type": "Point",
       "coordinates":  [ 121.477219477902,25.0772241037651 ]
    },
    "properties": {
    "name":"永福藥局",
    "addr":"新北市三重區永福街135巷40號1樓",
    "district":"三重區",
    "phone":"02-22807023"
    }
  },
  {
    "type": "Feature",
    "geometry": {
       "type": "Point",
       "coordinates":  [ 121.630743486577,25.0650732646273 ]
    },
    "properties": {
    "name":"福恩藥師大藥局",
    "addr":"新北市汐止區福德二路171-1號1樓",
    "district":"汐止區",
    "phone":"9.880716E8"
    }
  },
  {
    "type": "Feature",
    "geometry": {
       "type": "Point",
       "coordinates":  [ 121.492090851786,25.0794404047258 ]
    },
    "properties": {
    "name":"寶貝藥局",
    "addr":"新北市三重區仁愛街302-1號",
    "district":"三重區",
    "phone":"9.35512216E8"
    }
  },
  {
    "type": "Feature",
    "geometry": {
       "type": "Point",
       "coordinates":  [ 121.474051355624,25.0231414162687 ]
    },
    "properties": {
    "name":"大峰藥局",
    "addr":"新北市板橋區莒光路168號1樓",
    "district":"板橋區",
    "phone":"9.32123683E8"
    }
  },
  {
    "type": "Feature",
    "geometry": {
       "type": "Point",
       "coordinates":  [ 121.481870548678,24.9954804485439 ]
    },
    "properties": {
    "name":"良安藥局",
    "addr":"新北市中和區文元里連城路366號",
    "district":"中和區",
    "phone":"9.11874828E8"
    }
  },
  {
    "type": "Feature",
    "geometry": {
       "type": "Point",
       "coordinates":  [ 121.450614472,25.0358601299 ]
    },
    "properties": {
    "name":"文安藥局",
    "addr":"新北市新莊區褔壽街116號",
    "district":"新莊區",
    "phone":"02-29978477"
    }
  },
  {
    "type": "Feature",
    "geometry": {
       "type": "Point",
       "coordinates":  [ 121.465672208947,25.0464946243992 ]
    },
    "properties": {
    "name":"武田藥局",
    "addr":"新北市新莊區化成路212號",
    "district":"新莊區",
    "phone":"02-29944029"
    }
  },
  {
    "type": "Feature",
    "geometry": {
       "type": "Point",
       "coordinates":  [ 121.450040944335,25.0453453528383 ]
    },
    "properties": {
    "name":"達生大藥局",
    "addr":"新北市新莊區中港一街69號",
    "district":"新莊區",
    "phone":"02-29939360"
    }
  },
  {
    "type": "Feature",
    "geometry": {
       "type": "Point",
       "coordinates":  [ 121.444907345751,25.041804753438 ]
    },
    "properties": {
    "name":"祥好大藥局",
    "addr":"新北市新莊區新泰路331號",
    "district":"新莊區",
    "phone":"02-29939051"
    }
  },
  {
    "type": "Feature",
    "geometry": {
       "type": "Point",
       "coordinates":  [ 121.447462375315,25.0383387092115 ]
    },
    "properties": {
    "name":"再豐藥局",
    "addr":"新北市新莊區新泰路150巷13號",
    "district":"新莊區",
    "phone":"02-29936092"
    }
  },
  {
    "type": "Feature",
    "geometry": {
       "type": "Point",
       "coordinates":  [ 121.46566570262,25.0573402891094 ]
    },
    "properties": {
    "name":"楊氏武田藥局",
    "addr":"新北市新莊區化成路373-5號",
    "district":"新莊區",
    "phone":"02-29930073"
    }
  },
  {
    "type": "Feature",
    "geometry": {
       "type": "Point",
       "coordinates":  [ 121.454644128951,25.0466824892695 ]
    },
    "properties": {
    "name":"新民藥局",
    "addr":"新北市新莊區自強街39號",
    "district":"新莊區",
    "phone":"02-29917773"
    }
  },
  {
    "type": "Feature",
    "geometry": {
       "type": "Point",
       "coordinates":  [ 121.492341851705,25.0567446083239 ]
    },
    "properties": {
    "name":"慶昇藥局",
    "addr":"新北市三重區光明路88號",
    "district":"三重區",
    "phone":"02-29854256"
    }
  },
  {
    "type": "Feature",
    "geometry": {
       "type": "Point",
       "coordinates":  [ 121.465542796003,25.0733585901791 ]
    },
    "properties": {
    "name":"和泰藥局",
    "addr":"新北市五股區中興路1段133號",
    "district":"五股區",
    "phone":"02-29850281"
    }
  },
  {
    "type": "Feature",
    "geometry": {
       "type": "Point",
       "coordinates":  [ 121.492775710303,25.0677453750188 ]
    },
    "properties": {
    "name":"杜廣德藥師藥局",
    "addr":"新北市三重區大智街53號",
    "district":"三重區",
    "phone":"02-29843152"
    }
  },
  {
    "type": "Feature",
    "geometry": {
       "type": "Point",
       "coordinates":  [ 121.493942488636,25.0666107166856 ]
    },
    "properties": {
    "name":"裕福藥局",
    "addr":"新北市三重區長壽西街144號",
    "district":"三重區",
    "phone":"02-29831769"
    }
  },
  {
    "type": "Feature",
    "geometry": {
       "type": "Point",
       "coordinates":  [ 121.490400496298,25.053212762799 ]
    },
    "properties": {
    "name":"建芳藥局",
    "addr":"新北市三重區集美街174號",
    "district":"三重區",
    "phone":"02-29763351"
    }
  },
  {
    "type": "Feature",
    "geometry": {
       "type": "Point",
       "coordinates":  [ 121.49780879562,25.0694954898353 ]
    },
    "properties": {
    "name":"志雄藥局",
    "addr":"新北市三重區三和路2段220號",
    "district":"三重區",
    "phone":"02-29751803"
    }
  },
  {
    "type": "Feature",
    "geometry": {
       "type": "Point",
       "coordinates":  [ 121.453487501807,25.0081481118264 ]
    },
    "properties": {
    "name":"利安藥局",
    "addr":"新北市板橋區南雅東路108號",
    "district":"板橋區",
    "phone":"02-29696295"
    }
  },
  {
    "type": "Feature",
    "geometry": {
       "type": "Point",
       "coordinates":  [ 121.457425682099,25.0099056184452 ]
    },
    "properties": {
    "name":"慶安藥局",
    "addr":"新北市板橋區宮口街12號",
    "district":"板橋區",
    "phone":"02-29685178"
    }
  },
  {
    "type": "Feature",
    "geometry": {
       "type": "Point",
       "coordinates":  [ 121.456106646364,25.014718638593 ]
    },
    "properties": {
    "name":"啟暉藥局",
    "addr":"新北市板橋區大智街3號",
    "district":"板橋區",
    "phone":"02-29669166"
    }
  },
  {
    "type": "Feature",
    "geometry": {
       "type": "Point",
       "coordinates":  [ 121.479734507919,25.0125012323835 ]
    },
    "properties": {
    "name":"俊昌藥局",
    "addr":"新北市板橋區三民路2段245巷12號",
    "district":"板橋區",
    "phone":"02-29642498"
    }
  },
  {
    "type": "Feature",
    "geometry": {
       "type": "Point",
       "coordinates":  [ 121.479531007679,25.0148844611948 ]
    },
    "properties": {
    "name":"福勝堂藥局",
    "addr":"新北市板橋區三民路2段153巷2弄2號",
    "district":"板橋區",
    "phone":"02-29582146"
    }
  },
  {
    "type": "Feature",
    "geometry": {
       "type": "Point",
       "coordinates":  [ 121.469906441031,25.0005226281218 ]
    },
    "properties": {
    "name":"惠德藥局",
    "addr":"新北市中和區國光街111號",
    "district":"中和區",
    "phone":"02-29573563"
    }
  },
  {
    "type": "Feature",
    "geometry": {
       "type": "Point",
       "coordinates":  [ 121.459131224887,25.0024455183348 ]
    },
    "properties": {
    "name":"安祥藥局",
    "addr":"新北市板橋區大明街7號",
    "district":"板橋區",
    "phone":"02-29554501"
    }
  },
  {
    "type": "Feature",
    "geometry": {
       "type": "Point",
       "coordinates":  [ 121.465395009772,25.0051674405502 ]
    },
    "properties": {
    "name":"福恩藥局",
    "addr":"新北市板橋區實踐路93巷36號",
    "district":"板橋區",
    "phone":"02-29529126"
    }
  },
  {
    "type": "Feature",
    "geometry": {
       "type": "Point",
       "coordinates":  [ 121.467912885623,25.0066765714601 ]
    },
    "properties": {
    "name":"賜您康大藥局",
    "addr":"新北市板橋區國泰街50號",
    "district":"板橋區",
    "phone":"02-29513166"
    }
  },
  {
    "type": "Feature",
    "geometry": {
       "type": "Point",
       "coordinates":  [ 121.506562243596,24.985108746869 ]
    },
    "properties": {
    "name":"日發藥局",
    "addr":"新北市中和區興南路2段52-4號",
    "district":"中和區",
    "phone":"02-29424926"
    }
  },
  {
    "type": "Feature",
    "geometry": {
       "type": "Point",
       "coordinates":  [ 121.511548392153,24.9915269959518 ]
    },
    "properties": {
    "name":"開發大藥局",
    "addr":"新北市中和區興南路1段六號",
    "district":"中和區",
    "phone":"02-29412279"
    }
  },
  {
    "type": "Feature",
    "geometry": {
       "type": "Point",
       "coordinates":  [ 121.511245989419,24.983675418622 ]
    },
    "properties": {
    "name":"博健藥局",
    "addr":"新北市中和區忠孝街37巷4號",
    "district":"中和區",
    "phone":"02-29402107"
    }
  },
  {
    "type": "Feature",
    "geometry": {
       "type": "Point",
       "coordinates":  [ 121.52042662,25.0091521129 ]
    },
    "properties": {
    "name":"聖英藥局",
    "addr":"新北市永和區褔和路55-1號",
    "district":"永和區",
    "phone":"02-29293613"
    }
  },
  {
    "type": "Feature",
    "geometry": {
       "type": "Point",
       "coordinates":  [ 121.507105064438,24.9997907276332 ]
    },
    "properties": {
    "name":"律安藥局",
    "addr":"新北市永和區中和路321號",
    "district":"永和區",
    "phone":"02-29287212"
    }
  },
  {
    "type": "Feature",
    "geometry": {
       "type": "Point",
       "coordinates":  [ 121.526801852466,24.9984542652287 ]
    },
    "properties": {
    "name":"家宏藥局",
    "addr":"新北市永和區成功路2段123號",
    "district":"永和區",
    "phone":"02-29287212"
    }
  },
  {
    "type": "Feature",
    "geometry": {
       "type": "Point",
       "coordinates":  [ 121.433587208752,25.0643404080531 ]
    },
    "properties": {
    "name":"全成藥局",
    "addr":"新北市泰山區明志路1段83號",
    "district":"泰山區",
    "phone":"02-29096529"
    }
  },
  {
    "type": "Feature",
    "geometry": {
       "type": "Point",
       "coordinates":  [ 121.496348465474,25.0618317386042 ]
    },
    "properties": {
    "name":"閎安藥局",
    "addr":"新北市三重區重新路2段79號1樓",
    "district":"三重區",
    "phone":"02-89942121"
    }
  },
  {
    "type": "Feature",
    "geometry": {
       "type": "Point",
       "coordinates":  [ 121.497967278638,25.0679440246197 ]
    },
    "properties": {
    "name":"予康藥局",
    "addr":"新北市三重區文化北路198號1樓",
    "district":"三重區",
    "phone":"02-89858789"
    }
  },
  {
    "type": "Feature",
    "geometry": {
       "type": "Point",
       "coordinates":  [ 121.488852513307,25.0803649543616 ]
    },
    "properties": {
    "name":"慈愛藥局",
    "addr":"新北市三重區溪尾街173號1樓",
    "district":"三重區",
    "phone":"02-89851330"
    }
  },
  {
    "type": "Feature",
    "geometry": {
       "type": "Point",
       "coordinates":  [ 121.485366423385,25.0705557340571 ]
    },
    "properties": {
    "name":"康慈藥局",
    "addr":"新北市三重區忠孝路2段40號1樓",
    "district":"三重區",
    "phone":"02-89813529"
    }
  },
  {
    "type": "Feature",
    "geometry": {
       "type": "Point",
       "coordinates":  [ 121.487891084612,25.0558326590429 ]
    },
    "properties": {
    "name":"景康藥局",
    "addr":"新北市三重區集美街29號1樓",
    "district":"三重區",
    "phone":"02-89731717"
    }
  },
  {
    "type": "Feature",
    "geometry": {
       "type": "Point",
       "coordinates":  [ 121.499866251294,25.068204133123 ]
    },
    "properties": {
    "name":"康希藥局",
    "addr":"新北市三重區三和路2段83號1樓",
    "district":"三重區",
    "phone":"02-89728298"
    }
  },
  {
    "type": "Feature",
    "geometry": {
       "type": "Point",
       "coordinates":  [ 121.379902267485,24.947483543534 ]
    },
    "properties": {
    "name":"愛立康藥局",
    "addr":"新北市樹林區大雅路286號1樓",
    "district":"樹林區",
    "phone":"02-89706878"
    }
  },
  {
    "type": "Feature",
    "geometry": {
       "type": "Point",
       "coordinates":  [ 121.384227919094,24.949053435485 ]
    },
    "properties": {
    "name":"綠蘋果藥局",
    "addr":"新北市樹林區學勤路597號1樓",
    "district":"樹林區",
    "phone":"02-89706050"
    }
  },
  {
    "type": "Feature",
    "geometry": {
       "type": "Point",
       "coordinates":  [ 121.455591649613,25.0084375077436 ]
    },
    "properties": {
    "name":"廣泰藥師藥局",
    "addr":"新北市板橋區館前西路150號1樓",
    "district":"板橋區",
    "phone":"02-89698381"
    }
  },
  {
    "type": "Feature",
    "geometry": {
       "type": "Point",
       "coordinates":  [ 121.450656060277,24.9934643504843 ]
    },
    "properties": {
    "name":"葆康藥局",
    "addr":"新北市板橋區四川路2段245巷3號1樓",
    "district":"板橋區",
    "phone":"02-89678373"
    }
  },
  {
    "type": "Feature",
    "geometry": {
       "type": "Point",
       "coordinates":  [ 121.454275892657,24.9947894738772 ]
    },
    "properties": {
    "name":"德豐健保藥局",
    "addr":"新北市板橋區四川路2段47巷3弄1號1樓",
    "district":"板橋區",
    "phone":"02-89675880"
    }
  },
  {
    "type": "Feature",
    "geometry": {
       "type": "Point",
       "coordinates":  [ 121.453851940545,24.9938195087633 ]
    },
    "properties": {
    "name":"利安社區藥局",
    "addr":"新北市板橋區德興街37巷14號1樓",
    "district":"板橋區",
    "phone":"02-89671550"
    }
  },
  {
    "type": "Feature",
    "geometry": {
       "type": "Point",
       "coordinates":  [ 121.451540713018,24.9971700116146 ]
    },
    "properties": {
    "name":"亞季藥局",
    "addr":"新北市板橋區南雅南路2段142巷11號1樓",
    "district":"板橋區",
    "phone":"02-89671131"
    }
  },
  {
    "type": "Feature",
    "geometry": {
       "type": "Point",
       "coordinates":  [ 121.455048198106,24.9938020608021 ]
    },
    "properties": {
    "name":"久安藥局",
    "addr":"新北市土城區廣明街70號1樓",
    "district":"土城區",
    "phone":"02-89671097"
    }
  },
  {
    "type": "Feature",
    "geometry": {
       "type": "Point",
       "coordinates":  [ 121.472854318757,25.0151711346144 ]
    },
    "properties": {
    "name":"愛美得藥局",
    "addr":"新北市板橋區中山路2段34號1樓",
    "district":"板橋區",
    "phone":"02-89539190"
    }
  },
  {
    "type": "Feature",
    "geometry": {
       "type": "Point",
       "coordinates":  [ 121.46007008667,25.0037882828516 ]
    },
    "properties": {
    "name":"和安藥局",
    "addr":"新北市板橋區四川路1段171號1樓",
    "district":"板橋區",
    "phone":"02-89537548"
    }
  },
  {
    "type": "Feature",
    "geometry": {
       "type": "Point",
       "coordinates":  [ 121.518261934488,25.013859705009 ]
    },
    "properties": {
    "name":"柏愛藥局",
    "addr":"新北市永和區竹林路57號1樓",
    "district":"永和區",
    "phone":"02-89285609"
    }
  },
  {
    "type": "Feature",
    "geometry": {
       "type": "Point",
       "coordinates":  [ 121.517507360162,25.0146451338684 ]
    },
    "properties": {
    "name":"日陽藥局",
    "addr":"新北市永和區竹林路29號1樓",
    "district":"永和區",
    "phone":"02-89252346"
    }
  },
  {
    "type": "Feature",
    "geometry": {
       "type": "Point",
       "coordinates":  [ 121.509720204763,25.0102910965887 ]
    },
    "properties": {
    "name":"亞佐藥局",
    "addr":"新北市永和區中山路1段128巷17號1樓",
    "district":"永和區",
    "phone":"02-89219038"
    }
  },
  {
    "type": "Feature",
    "geometry": {
       "type": "Point",
       "coordinates":  [ 121.515828058734,25.0101669336194 ]
    },
    "properties": {
    "name":"皇家藥師藥局",
    "addr":"新北市永和區中正路720號1樓",
    "district":"永和區",
    "phone":"02-89216867"
    }
  },
  {
    "type": "Feature",
    "geometry": {
       "type": "Point",
       "coordinates":  [ 121.526737022965,24.9980967539189 ]
    },
    "properties": {
    "name":"崇恩藥局",
    "addr":"新北市永和區成功路2段135號1樓",
    "district":"永和區",
    "phone":"02-89214022"
    }
  },
  {
    "type": "Feature",
    "geometry": {
       "type": "Point",
       "coordinates":  [ 121.543068591105,24.9756255412433 ]
    },
    "properties": {
    "name":"北一藥師藥局",
    "addr":"新北市新店區北新路2段160號1樓、2樓",
    "district":"新店區",
    "phone":"02-89115686"
    }
  },
  {
    "type": "Feature",
    "geometry": {
       "type": "Point",
       "coordinates":  [ 121.540414113813,24.9765658979593 ]
    },
    "properties": {
    "name":"微笑生活藥局",
    "addr":"新北市新店區建國路85號1樓",
    "district":"新店區",
    "phone":"02-89113397"
    }
  },
  {
    "type": "Feature",
    "geometry": {
       "type": "Point",
       "coordinates":  [ 121.66475644901,25.0726784328354 ]
    },
    "properties": {
    "name":"廣誠藥師藥局",
    "addr":"新北市汐止區建成路22號1樓",
    "district":"汐止區",
    "phone":"02-86916091"
    }
  },
  {
    "type": "Feature",
    "geometry": {
       "type": "Point",
       "coordinates":  [ 121.653630502058,25.0630353405278 ]
    },
    "properties": {
    "name":"永康中西綜合藥局",
    "addr":"新北市汐止區龍安路175號1樓",
    "district":"汐止區",
    "phone":"02-86915580"
    }
  },
  {
    "type": "Feature",
    "geometry": {
       "type": "Point",
       "coordinates":  [ 121.664769210671,25.0694689167513 ]
    },
    "properties": {
    "name":"忠孝藥局",
    "addr":"新北市汐止區忠孝東路321號1樓",
    "district":"汐止區",
    "phone":"02-86910788"
    }
  },
  {
    "type": "Feature",
    "geometry": {
       "type": "Point",
       "coordinates":  [ 121.417632783972,24.998563832258 ]
    },
    "properties": {
    "name":"保康藥局",
    "addr":"新北市樹林區保安街1段364號",
    "district":"樹林區",
    "phone":"02-86875503"
    }
  },
  {
    "type": "Feature",
    "geometry": {
       "type": "Point",
       "coordinates":  [ 121.419105184088,24.9800136267296 ]
    },
    "properties": {
    "name":"泰平藥師藥局",
    "addr":"新北市樹林區彭福里太平路143號",
    "district":"樹林區",
    "phone":"02-86860038"
    }
  },
  {
    "type": "Feature",
    "geometry": {
       "type": "Point",
       "coordinates":  [ 121.415357326142,24.9822963110247 ]
    },
    "properties": {
    "name":"小蜜蜂中西健保藥局",
    "addr":"新北市樹林區東榮街118號1樓",
    "district":"樹林區",
    "phone":"02-86853677"
    }
  },
  {
    "type": "Feature",
    "geometry": {
       "type": "Point",
       "coordinates":  [ 121.415863944295,24.980476391763 ]
    },
    "properties": {
    "name":"樹林健業藥局",
    "addr":"新北市樹林區東華街89號1樓",
    "district":"樹林區",
    "phone":"02-86851736"
    }
  },
  {
    "type": "Feature",
    "geometry": {
       "type": "Point",
       "coordinates":  [ 121.41146788773,24.980376777352 ]
    },
    "properties": {
    "name":"啄木鳥藥局",
    "addr":"新北市樹林區中華路391號1-2樓",
    "district":"樹林區",
    "phone":"02-86851495"
    }
  },
  {
    "type": "Feature",
    "geometry": {
       "type": "Point",
       "coordinates":  [ 121.338468671463,24.9554813718684 ]
    },
    "properties": {
    "name":"萊爾康健保藥局",
    "addr":"新北市鶯歌區永明街17號1樓",
    "district":"鶯歌區",
    "phone":"02-86782232"
    }
  },
  {
    "type": "Feature",
    "geometry": {
       "type": "Point",
       "coordinates":  [ 121.329887911053,24.9683456577283 ]
    },
    "properties": {
    "name":"華昇藥局",
    "addr":"新北市鶯歌區鶯桃路567號",
    "district":"鶯歌區",
    "phone":"02-86777961"
    }
  },
  {
    "type": "Feature",
    "geometry": {
       "type": "Point",
       "coordinates":  [ 121.396350739462,24.9358430679046 ]
    },
    "properties": {
    "name":"一大藥局",
    "addr":"新北市三峽區橫溪路23號",
    "district":"三峽區",
    "phone":"02-86767777"
    }
  },
  {
    "type": "Feature",
    "geometry": {
       "type": "Point",
       "coordinates":  [ 121.376944586117,24.9286129792674 ]
    },
    "properties": {
    "name":"欣美大藥局",
    "addr":"新北市三峽區大同路52號",
    "district":"三峽區",
    "phone":"02-86712269"
    }
  },
  {
    "type": "Feature",
    "geometry": {
       "type": "Point",
       "coordinates":  [ 121.534187578904,24.9777557223902 ]
    },
    "properties": {
    "name":"德莘藥局",
    "addr":"新北市新店區中正路413號1樓",
    "district":"新店區",
    "phone":"02-86655462"
    }
  },
  {
    "type": "Feature",
    "geometry": {
       "type": "Point",
       "coordinates":  [ 121.665725650988,25.0709585320681 ]
    },
    "properties": {
    "name":"躍獅尚揚藥局",
    "addr":"新北市汐止區忠孝東路399號1樓",
    "district":"汐止區",
    "phone":"02-86483158"
    }
  },
  {
    "type": "Feature",
    "geometry": {
       "type": "Point",
       "coordinates":  [ 121.442279151265,25.1763098610568 ]
    },
    "properties": {
    "name":"文川藥局",
    "addr":"新北市淡水區中山北路1段93號1樓",
    "district":"淡水區",
    "phone":"02-86319033"
    }
  },
  {
    "type": "Feature",
    "geometry": {
       "type": "Point",
       "coordinates":  [ 121.488511171045,25.0805973276838 ]
    },
    "properties": {
    "name":"萊康健保藥局",
    "addr":"新北市三重區溪尾街176號1樓",
    "district":"三重區",
    "phone":"02-82871076"
    }
  },
  {
    "type": "Feature",
    "geometry": {
       "type": "Point",
       "coordinates":  [ 121.47175704821,25.0916168845028 ]
    },
    "properties": {
    "name":"北聯藥局",
    "addr":"新北市蘆洲區民族路361號1樓",
    "district":"蘆洲區",
    "phone":"02-82866873"
    }
  },
  {
    "type": "Feature",
    "geometry": {
       "type": "Point",
       "coordinates":  [ 121.478593365896,25.085532320586 ]
    },
    "properties": {
    "name":"龍成藥局",
    "addr":"新北市蘆洲區民族路53號",
    "district":"蘆洲區",
    "phone":"02-82857868"
    }
  },
  {
    "type": "Feature",
    "geometry": {
       "type": "Point",
       "coordinates":  [ 121.473425282437,25.0886786372668 ]
    },
    "properties": {
    "name":"威仕康藥局",
    "addr":"新北市蘆洲區民權路122號1樓",
    "district":"蘆洲區",
    "phone":"02-82853277"
    }
  },
  {
    "type": "Feature",
    "geometry": {
       "type": "Point",
       "coordinates":  [ 121.473780125775,25.0822156556405 ]
    },
    "properties": {
    "name":"幸安藥局",
    "addr":"新北市蘆洲區中山二路53號1樓",
    "district":"蘆洲區",
    "phone":"02-82835389"
    }
  },
  {
    "type": "Feature",
    "geometry": {
       "type": "Point",
       "coordinates":  [ 121.460575453321,25.0864273308985 ]
    },
    "properties": {
    "name":"好美麗健康藥局",
    "addr":"新北市蘆洲區光明路6號1樓",
    "district":"蘆洲區",
    "phone":"02-82826209"
    }
  },
  {
    "type": "Feature",
    "geometry": {
       "type": "Point",
       "coordinates":  [ 121.457502196919,25.0865569188725 ]
    },
    "properties": {
    "name":"康得健藥局",
    "addr":"新北市蘆洲區長安街260號1樓",
    "district":"蘆洲區",
    "phone":"02-82821862"
    }
  },
  {
    "type": "Feature",
    "geometry": {
       "type": "Point",
       "coordinates":  [ 121.4784573007,25.0889879679857 ]
    },
    "properties": {
    "name":"宏祐藥局",
    "addr":"新北市蘆洲區復興路202號1樓",
    "district":"蘆洲區",
    "phone":"02-82815252"
    }
  },
  {
    "type": "Feature",
    "geometry": {
       "type": "Point",
       "coordinates":  [ 121.443152400594,25.0011470474312 ]
    },
    "properties": {
    "name":"名安藥局",
    "addr":"新北市板橋區龍興街57號1樓",
    "district":"板橋區",
    "phone":"02-82751784"
    }
  },
  {
    "type": "Feature",
    "geometry": {
       "type": "Point",
       "coordinates":  [ 121.460982255263,25.0228991260743 ]
    },
    "properties": {
    "name":"楓康藥局",
    "addr":"新北市板橋區新海路119號1樓",
    "district":"板橋區",
    "phone":"02-82582246"
    }
  },
  {
    "type": "Feature",
    "geometry": {
       "type": "Point",
       "coordinates":  [ 121.478544369804,25.0314381570752 ]
    },
    "properties": {
    "name":"欣安藥局",
    "addr":"新北市板橋區懷德街109號1樓",
    "district":"板橋區",
    "phone":"02-82572535"
    }
  },
  {
    "type": "Feature",
    "geometry": {
       "type": "Point",
       "coordinates":  [ 121.474188591203,25.0287916433861 ]
    },
    "properties": {
    "name":"麥田健保藥局",
    "addr":"新北市板橋區雙十路2段120號2樓",
    "district":"板橋區",
    "phone":"02-82529223"
    }
  },
  {
    "type": "Feature",
    "geometry": {
       "type": "Point",
       "coordinates":  [ 121.474811138656,25.0315520591175 ]
    },
    "properties": {
    "name":"宥康婦幼健保藥局",
    "addr":"新北市板橋區仁化街30號1樓",
    "district":"板橋區",
    "phone":"02-82528162"
    }
  },
  {
    "type": "Feature",
    "geometry": {
       "type": "Point",
       "coordinates":  [ 121.464942682751,25.0173513711888 ]
    },
    "properties": {
    "name":"快樂藥局漢生店",
    "addr":"新北市板橋區漢生東路19號",
    "district":"板橋區",
    "phone":"02-82522637"
    }
  },
  {
    "type": "Feature",
    "geometry": {
       "type": "Point",
       "coordinates":  [ 121.481375158467,25.0024132866593 ]
    },
    "properties": {
    "name":"溫莎藥局",
    "addr":"新北市中和區員山路292號",
    "district":"中和區",
    "phone":"02-82277275"
    }
  },
  {
    "type": "Feature",
    "geometry": {
       "type": "Point",
       "coordinates":  [ 121.428025872814,25.0268474145983 ]
    },
    "properties": {
    "name":"西華藥局",
    "addr":"新北市新莊區後港一路102號1樓",
    "district":"新莊區",
    "phone":"02-82012697"
    }
  },
  {
    "type": "Feature",
    "geometry": {
       "type": "Point",
       "coordinates":  [ 121.427047644949,25.0213588804983 ]
    },
    "properties": {
    "name":"富祐藥局",
    "addr":"新北市新莊區民安西路21號1樓",
    "district":"新莊區",
    "phone":"02-82012451"
    }
  },
  {
    "type": "Feature",
    "geometry": {
       "type": "Point",
       "coordinates":  [ 121.457838601,25.0094741889 ]
    },
    "properties": {
    "name":"皇慶藥局",
    "addr":"新北市板橋區南門街81、83號1、2、3樓及館前西路112巷7號1、2樓",
    "district":"板橋區",
    "phone":"02-77297988"
    }
  },
  {
    "type": "Feature",
    "geometry": {
       "type": "Point",
       "coordinates":  [ 121.410326897764,25.0158956477804 ]
    },
    "properties": {
    "name":"懷恩藥局",
    "addr":"新北市樹林區中正路614號",
    "district":"樹林區",
    "phone":"02-26893417"
    }
  },
  {
    "type": "Feature",
    "geometry": {
       "type": "Point",
       "coordinates":  [ 121.421344051967,24.9899718367707 ]
    },
    "properties": {
    "name":"江藥局",
    "addr":"新北市樹林區日新街102號1樓",
    "district":"樹林區",
    "phone":"02-26828001"
    }
  },
  {
    "type": "Feature",
    "geometry": {
       "type": "Point",
       "coordinates":  [ 121.433215825305,24.9917132392547 ]
    },
    "properties": {
    "name":"永幸藥局",
    "addr":"新北市板橋區金門街121巷2號",
    "district":"板橋區",
    "phone":"02-26827012"
    }
  },
  {
    "type": "Feature",
    "geometry": {
       "type": "Point",
       "coordinates":  [ 121.417476837547,24.9797065172419 ]
    },
    "properties": {
    "name":"蔣示藥局",
    "addr":"新北市樹林區太順街62巷3弄2號",
    "district":"樹林區",
    "phone":"02-26819460"
    }
  },
  {
    "type": "Feature",
    "geometry": {
       "type": "Point",
       "coordinates":  [ 121.427611367002,24.9898237427986 ]
    },
    "properties": {
    "name":"戴安藥局",
    "addr":"新北市板橋區溪北路54號",
    "district":"板橋區",
    "phone":"02-26818663"
    }
  },
  {
    "type": "Feature",
    "geometry": {
       "type": "Point",
       "coordinates":  [ 121.494177909113,25.0713094996735 ]
    },
    "properties": {
    "name":"安立藥局",
    "addr":"新北市三重區正義北路317號1樓",
    "district":"三重區",
    "phone":"02-66252626"
    }
  },
  {
    "type": "Feature",
    "geometry": {
       "type": "Point",
       "coordinates":  [ 121.47906842621,25.016655987904 ]
    },
    "properties": {
    "name":"辰陽藥局",
    "addr":"新北市板橋區三民路2段110號-2(1樓)",
    "district":"板橋區",
    "phone":"02-66082888"
    }
  },
  {
    "type": "Feature",
    "geometry": {
       "type": "Point",
       "coordinates":  [ 121.663467275032,25.0674604199796 ]
    },
    "properties": {
    "name":"致維藥局",
    "addr":"新北市汐止區忠孝東路258巷5號1樓",
    "district":"汐止區",
    "phone":"02-26422993"
    }
  },
  {
    "type": "Feature",
    "geometry": {
       "type": "Point",
       "coordinates":  [ 121.445862729789,25.1716669388263 ]
    },
    "properties": {
    "name":"松和大藥局",
    "addr":"新北市淡水區英專路92號",
    "district":"淡水區",
    "phone":"02-26203369"
    }
  },
  {
    "type": "Feature",
    "geometry": {
       "type": "Point",
       "coordinates":  [ 121.379537088277,24.9473530995628 ]
    },
    "properties": {
    "name":"盛立藥局",
    "addr":"新北市樹林區大雅路285號1樓",
    "district":"樹林區",
    "phone":"02-35018218"
    }
  },
  {
    "type": "Feature",
    "geometry": {
       "type": "Point",
       "coordinates":  [ 121.481167955176,24.9995095821667 ]
    },
    "properties": {
    "name":"里安藥局",
    "addr":"新北市中和區員山路271-1號2樓",
    "district":"中和區",
    "phone":"02-32347111"
    }
  },
  {
    "type": "Feature",
    "geometry": {
       "type": "Point",
       "coordinates":  [ 121.45960326953,25.0422690065843 ]
    },
    "properties": {
    "name":"北醫藥局",
    "addr":"新北市新莊區思源路119號1樓",
    "district":"新莊區",
    "phone":"02-29983670"
    }
  },
  {
    "type": "Feature",
    "geometry": {
       "type": "Point",
       "coordinates":  [ 121.451317320744,25.0481220349045 ]
    },
    "properties": {
    "name":"建嘉藥局",
    "addr":"新北市新莊區中誠街42號1樓",
    "district":"新莊區",
    "phone":"02-29935301"
    }
  },
  {
    "type": "Feature",
    "geometry": {
       "type": "Point",
       "coordinates":  [ 121.496694229653,25.0667405934942 ]
    },
    "properties": {
    "name":"天賜藥局",
    "addr":"新北市三重區正義北路141號1樓",
    "district":"三重區",
    "phone":"02-29856852"
    }
  },
  {
    "type": "Feature",
    "geometry": {
       "type": "Point",
       "coordinates":  [ 121.495298789545,25.0694249994583 ]
    },
    "properties": {
    "name":"健康藥局",
    "addr":"新北市三重區安樂街58號1樓",
    "district":"三重區",
    "phone":"02-29841882"
    }
  },
  {
    "type": "Feature",
    "geometry": {
       "type": "Point",
       "coordinates":  [ 121.485544782309,25.0687444884593 ]
    },
    "properties": {
    "name":"穗元大藥局",
    "addr":"新北市三重區力行路1段149號1樓、151號1樓",
    "district":"三重區",
    "phone":"02-29827688"
    }
  },
  {
    "type": "Feature",
    "geometry": {
       "type": "Point",
       "coordinates":  [ 121.489680678362,25.0632457556605 ]
    },
    "properties": {
    "name":"樂活處方箋藥局",
    "addr":"新北市三重區中正北路99號1樓",
    "district":"三重區",
    "phone":"02-29805182"
    }
  },
  {
    "type": "Feature",
    "geometry": {
       "type": "Point",
       "coordinates":  [ 121.502038355,25.0661544938 ]
    },
    "properties": {
    "name":"陽光藥師藥局",
    "addr":"新北市三重區三和路1段182號1樓",
    "district":"三重區",
    "phone":"02-29788120"
    }
  },
  {
    "type": "Feature",
    "geometry": {
       "type": "Point",
       "coordinates":  [ 121.50257666469,25.0696776311398 ]
    },
    "properties": {
    "name":"飛龍大藥局",
    "addr":"新北市三重區龍濱路163號1樓",
    "district":"三重區",
    "phone":"02-29773733"
    }
  },
  {
    "type": "Feature",
    "geometry": {
       "type": "Point",
       "coordinates":  [ 121.488645234738,25.0513057211355 ]
    },
    "properties": {
    "name":"榮康藥局",
    "addr":"新北市三重區成功路81號1樓",
    "district":"三重區",
    "phone":"02-29772723"
    }
  },
  {
    "type": "Feature",
    "geometry": {
       "type": "Point",
       "coordinates":  [ 121.483614441346,25.0630173362278 ]
    },
    "properties": {
    "name":"德榮藥局",
    "addr":"新北市三重區中華路91號１樓",
    "district":"三重區",
    "phone":"02-29717291"
    }
  },
  {
    "type": "Feature",
    "geometry": {
       "type": "Point",
       "coordinates":  [ 121.489772618061,25.0726461920476 ]
    },
    "properties": {
    "name":"厚德藥局",
    "addr":"新北市三重區大智街175號1樓、177號1樓",
    "district":"三重區",
    "phone":"02-29717277"
    }
  },
  {
    "type": "Feature",
    "geometry": {
       "type": "Point",
       "coordinates":  [ 121.49718243016,25.0641519846451 ]
    },
    "properties": {
    "name":"大樹三重藥局",
    "addr":"新北市三重區正義北路66號",
    "district":"三重區",
    "phone":"02-29713188"
    }
  },
  {
    "type": "Feature",
    "geometry": {
       "type": "Point",
       "coordinates":  [ 121.480252162478,25.0671171352991 ]
    },
    "properties": {
    "name":"博愛藥局",
    "addr":"新北市三重區三民街220號1樓",
    "district":"三重區",
    "phone":"02-29711606"
    }
  },
  {
    "type": "Feature",
    "geometry": {
       "type": "Point",
       "coordinates":  [ 121.499235865951,25.0685257678395 ]
    },
    "properties": {
    "name":"建祥三和藥局",
    "addr":"新北市三重區三和路2段160號1樓",
    "district":"三重區",
    "phone":"02-29703379"
    }
  },
  {
    "type": "Feature",
    "geometry": {
       "type": "Point",
       "coordinates":  [ 121.455424081083,25.0084881382402 ]
    },
    "properties": {
    "name":"安佑藥局",
    "addr":"新北市板橋區館前西路152-2號",
    "district":"板橋區",
    "phone":"02-29698651"
    }
  },
  {
    "type": "Feature",
    "geometry": {
       "type": "Point",
       "coordinates":  [ 121.446530482887,25.0118171145066 ]
    },
    "properties": {
    "name":"僑一藥局",
    "addr":"新北市板橋區僑中一街106號1樓",
    "district":"板橋區",
    "phone":"02-29696850"
    }
  },
  {
    "type": "Feature",
    "geometry": {
       "type": "Point",
       "coordinates":  [ 121.456516332384,25.0070579548839 ]
    },
    "properties": {
    "name":"醫安藥局",
    "addr":"新北市板橋區南雅南路1段11號1樓及2樓",
    "district":"板橋區",
    "phone":"02-29692588"
    }
  },
  {
    "type": "Feature",
    "geometry": {
       "type": "Point",
       "coordinates":  [ 121.446071232861,25.0126517875689 ]
    },
    "properties": {
    "name":"僑中藥師藥局",
    "addr":"新北市板橋區僑中1街102巷5弄15號1樓",
    "district":"板橋區",
    "phone":"02-29692547"
    }
  },
  {
    "type": "Feature",
    "geometry": {
       "type": "Point",
       "coordinates":  [ 121.455642350095,25.0054269297025 ]
    },
    "properties": {
    "name":"福澤藥局",
    "addr":"新北市板橋區南雅南路1段85號1樓",
    "district":"板橋區",
    "phone":"02-29690013"
    }
  },
  {
    "type": "Feature",
    "geometry": {
       "type": "Point",
       "coordinates":  [ 121.443256491683,25.000936530862 ]
    },
    "properties": {
    "name":"永欣藥師藥局",
    "addr":"新北市板橋區龍興街46號1樓",
    "district":"板橋區",
    "phone":"02-29687120"
    }
  },
  {
    "type": "Feature",
    "geometry": {
       "type": "Point",
       "coordinates":  [ 121.443051529122,25.0007938186657 ]
    },
    "properties": {
    "name":"合佳藥局",
    "addr":"新北市板橋區龍興街47號1樓",
    "district":"板橋區",
    "phone":"02-29683486"
    }
  },
  {
    "type": "Feature",
    "geometry": {
       "type": "Point",
       "coordinates":  [ 121.456502423971,25.0079047937766 ]
    },
    "properties": {
    "name":"元賀大藥局",
    "addr":"新北市板橋區館前西路132號1樓",
    "district":"板橋區",
    "phone":"02-29680980"
    }
  },
  {
    "type": "Feature",
    "geometry": {
       "type": "Point",
       "coordinates":  [ 121.45577829085,25.0077278628996 ]
    },
    "properties": {
    "name":"永富藥局",
    "addr":"新北市板橋區中興路9號",
    "district":"板橋區",
    "phone":"02-29675598"
    }
  },
  {
    "type": "Feature",
    "geometry": {
       "type": "Point",
       "coordinates":  [ 121.455059856669,25.0120940389489 ]
    },
    "properties": {
    "name":"日生大藥局",
    "addr":"新北市板橋區中正路1巷16弄16號",
    "district":"板橋區",
    "phone":"02-29675261"
    }
  },
  {
    "type": "Feature",
    "geometry": {
       "type": "Point",
       "coordinates":  [ 121.455577071402,25.0119721222949 ]
    },
    "properties": {
    "name":"常仁藥局",
    "addr":"新北市板橋區中正路1巷4號",
    "district":"板橋區",
    "phone":"02-29674999"
    }
  },
  {
    "type": "Feature",
    "geometry": {
       "type": "Point",
       "coordinates":  [ 121.44280913541,24.998579949728 ]
    },
    "properties": {
    "name":"禾田藥局",
    "addr":"新北市板橋區大觀路2段265巷12號1樓",
    "district":"板橋區",
    "phone":"02-29659899"
    }
  },
  {
    "type": "Feature",
    "geometry": {
       "type": "Point",
       "coordinates":  [ 121.458414427228,25.0179913464527 ]
    },
    "properties": {
    "name":"杏澤藥局",
    "addr":"新北市板橋區國光路55號",
    "district":"板橋區",
    "phone":"02-29657959"
    }
  },
  {
    "type": "Feature",
    "geometry": {
       "type": "Point",
       "coordinates":  [ 121.45571952153,25.0096421261454 ]
    },
    "properties": {
    "name":"府中藥局",
    "addr":"新北市板橋區府中路110號",
    "district":"板橋區",
    "phone":"02-29656731"
    }
  },
  {
    "type": "Feature",
    "geometry": {
       "type": "Point",
       "coordinates":  [ 121.456129578599,25.0175026805164 ]
    },
    "properties": {
    "name":"微笑藥局",
    "addr":"新北市板橋區中正路211號",
    "district":"板橋區",
    "phone":"02-29655811"
    }
  },
  {
    "type": "Feature",
    "geometry": {
       "type": "Point",
       "coordinates":  [ 121.454131640652,25.0021036529582 ]
    },
    "properties": {
    "name":"迦佰麗藥局",
    "addr":"新北市板橋區南雅南路2段11-24號1樓",
    "district":"板橋區",
    "phone":"02-29648498"
    }
  },
  {
    "type": "Feature",
    "geometry": {
       "type": "Point",
       "coordinates":  [ 121.48275012564,25.0207343524066 ]
    },
    "properties": {
    "name":"品品藥局",
    "addr":"新北市板橋區中山路2段402號1樓",
    "district":"板橋區",
    "phone":"02-29647917"
    }
  },
  {
    "type": "Feature",
    "geometry": {
       "type": "Point",
       "coordinates":  [ 121.459899991247,25.0033559766603 ]
    },
    "properties": {
    "name":"活泉藥局",
    "addr":"新北市板橋區四川路1段156號1樓、2樓",
    "district":"板橋區",
    "phone":"02-29647761"
    }
  },
  {
    "type": "Feature",
    "geometry": {
       "type": "Point",
       "coordinates":  [ 121.476900416139,25.0173838712076 ]
    },
    "properties": {
    "name":"晴光藥局",
    "addr":"新北市板橋區中山路2段225號2樓",
    "district":"板橋區",
    "phone":"02-29646662"
    }
  },
  {
    "type": "Feature",
    "geometry": {
       "type": "Point",
       "coordinates":  [ 121.467899096087,25.0030015227251 ]
    },
    "properties": {
    "name":"弘安藥局",
    "addr":"新北市中和區德光路121-1號1樓",
    "district":"中和區",
    "phone":"02-29646489"
    }
  },
  {
    "type": "Feature",
    "geometry": {
       "type": "Point",
       "coordinates":  [ 121.472475472789,25.0008825322388 ]
    },
    "properties": {
    "name":"躍獅康銓藥局",
    "addr":"新北市中和區莒光路146號1樓",
    "district":"中和區",
    "phone":"02-29646452"
    }
  },
  {
    "type": "Feature",
    "geometry": {
       "type": "Point",
       "coordinates":  [ 121.470171800676,25.0154412085346 ]
    },
    "properties": {
    "name":"利安中西藥局",
    "addr":"新北市板橋區板新路143號",
    "district":"板橋區",
    "phone":"02-29644745"
    }
  },
  {
    "type": "Feature",
    "geometry": {
       "type": "Point",
       "coordinates":  [ 121.46343314215,24.9984640749474 ]
    },
    "properties": {
    "name":"國慶藥局",
    "addr":"新北市板橋區國慶路268號1樓",
    "district":"板橋區",
    "phone":"02-29641680"
    }
  },
  {
    "type": "Feature",
    "geometry": {
       "type": "Point",
       "coordinates":  [ 121.462593131689,24.9963633617578 ]
    },
    "properties": {
    "name":"躍獅國慶藥局",
    "addr":"新北市板橋區國慶路179號1樓",
    "district":"板橋區",
    "phone":"02-29641548"
    }
  },
  {
    "type": "Feature",
    "geometry": {
       "type": "Point",
       "coordinates":  [ 121.464298990427,25.0043693616662 ]
    },
    "properties": {
    "name":"向康藥局",
    "addr":"新北市板橋區實踐路147號1樓",
    "district":"板橋區",
    "phone":"02-29637248"
    }
  },
  {
    "type": "Feature",
    "geometry": {
       "type": "Point",
       "coordinates":  [ 121.460189358522,25.0013474123723 ]
    },
    "properties": {
    "name":"王林藥局",
    "addr":"新北市板橋區忠孝路24巷15號1樓",
    "district":"板橋區",
    "phone":"02-29636775"
    }
  },
  {
    "type": "Feature",
    "geometry": {
       "type": "Point",
       "coordinates":  [ 121.461583485856,24.9961690319766 ]
    },
    "properties": {
    "name":"喬治藥局",
    "addr":"新北市板橋區國慶路155號1樓",
    "district":"板橋區",
    "phone":"02-29630787"
    }
  },
  {
    "type": "Feature",
    "geometry": {
       "type": "Point",
       "coordinates":  [ 121.457082355837,24.9937290838302 ]
    },
    "properties": {
    "name":"賜安藥局",
    "addr":"新北市板橋區信義路60號1樓",
    "district":"板橋區",
    "phone":"02-29617483"
    }
  },
  {
    "type": "Feature",
    "geometry": {
       "type": "Point",
       "coordinates":  [ 121.479977172514,25.0232630884609 ]
    },
    "properties": {
    "name":"大福藥局",
    "addr":"新北市板橋區三民路1段31巷15號",
    "district":"板橋區",
    "phone":"02-29610311"
    }
  },
  {
    "type": "Feature",
    "geometry": {
       "type": "Point",
       "coordinates":  [ 121.442895228777,25.0003332622958 ]
    },
    "properties": {
    "name":"宜康藥局",
    "addr":"新北市板橋區龍興街33號1樓",
    "district":"板橋區",
    "phone":"02-29603940"
    }
  },
  {
    "type": "Feature",
    "geometry": {
       "type": "Point",
       "coordinates":  [ 121.471976584922,25.0073389352953 ]
    },
    "properties": {
    "name":"漢民藥局",
    "addr":"新北市板橋區漢生東路346號1樓",
    "district":"板橋區",
    "phone":"02-29598168"
    }
  },
  {
    "type": "Feature",
    "geometry": {
       "type": "Point",
       "coordinates":  [ 121.458929562572,24.9921594409749 ]
    },
    "properties": {
    "name":"軒源藥局",
    "addr":"新北市板橋區信義路169號1樓",
    "district":"板橋區",
    "phone":"02-29583995"
    }
  },
  {
    "type": "Feature",
    "geometry": {
       "type": "Point",
       "coordinates":  [ 121.460722774704,25.0052302374142 ]
    },
    "properties": {
    "name":"立安中西藥局",
    "addr":"新北市板橋區後埔街83號1樓",
    "district":"板橋區",
    "phone":"02-29582241"
    }
  },
  {
    "type": "Feature",
    "geometry": {
       "type": "Point",
       "coordinates":  [ 121.479007609801,25.0186614522074 ]
    },
    "properties": {
    "name":"湯明藥局",
    "addr":"新北市板橋區中山路2段319號1樓",
    "district":"板橋區",
    "phone":"02-29571980"
    }
  },
  {
    "type": "Feature",
    "geometry": {
       "type": "Point",
       "coordinates":  [ 121.47735576564,25.0181921040094 ]
    },
    "properties": {
    "name":"大楓藥師藥局",
    "addr":"新北市板橋區懷仁街84號1樓",
    "district":"板橋區",
    "phone":"02-29560576"
    }
  },
  {
    "type": "Feature",
    "geometry": {
       "type": "Point",
       "coordinates":  [ 121.460255297529,25.0017793861278 ]
    },
    "properties": {
    "name":"板橋大樹藥局",
    "addr":"新北市板橋區忠孝路28號1樓",
    "district":"板橋區",
    "phone":"02-29555551"
    }
  },
  {
    "type": "Feature",
    "geometry": {
       "type": "Point",
       "coordinates":  [ 121.467199854381,25.0070513102415 ]
    },
    "properties": {
    "name":"福安藥局",
    "addr":"新北市板橋區國泰街76巷24、26號1樓",
    "district":"板橋區",
    "phone":"02-29540875"
    }
  },
  {
    "type": "Feature",
    "geometry": {
       "type": "Point",
       "coordinates":  [ 121.463857801666,24.9980916448791 ]
    },
    "properties": {
    "name":"信安藥師藥局",
    "addr":"新北市板橋區重慶路308-1號1樓",
    "district":"板橋區",
    "phone":"02-29540315"
    }
  },
  {
    "type": "Feature",
    "geometry": {
       "type": "Point",
       "coordinates":  [ 121.478478838597,25.0180719956293 ]
    },
    "properties": {
    "name":"德一藥局",
    "addr":"新北市板橋區中山路2段238號1樓",
    "district":"板橋區",
    "phone":"02-29535717"
    }
  },
  {
    "type": "Feature",
    "geometry": {
       "type": "Point",
       "coordinates":  [ 121.468675540338,25.0073304673288 ]
    },
    "properties": {
    "name":"正安健保藥局",
    "addr":"新北市板橋區民族路224號1樓",
    "district":"板橋區",
    "phone":"02-29526813"
    }
  },
  {
    "type": "Feature",
    "geometry": {
       "type": "Point",
       "coordinates":  [ 121.463795031274,25.0104951273314 ]
    },
    "properties": {
    "name":"信美藥局",
    "addr":"新北市板橋區新民街7巷18號1樓",
    "district":"板橋區",
    "phone":"02-29526100"
    }
  },
  {
    "type": "Feature",
    "geometry": {
       "type": "Point",
       "coordinates":  [ 121.458023083628,25.0048121178834 ]
    },
    "properties": {
    "name":"樺新健保藥局",
    "addr":"新北市板橋區華興街52號1樓",
    "district":"板橋區",
    "phone":"02-29525130"
    }
  },
  {
    "type": "Feature",
    "geometry": {
       "type": "Point",
       "coordinates":  [ 121.474262459168,25.0103029335447 ]
    },
    "properties": {
    "name":"錦龍藥局",
    "addr":"新北市板橋區長安街138巷1弄114號",
    "district":"板橋區",
    "phone":"02-29522290"
    }
  },
  {
    "type": "Feature",
    "geometry": {
       "type": "Point",
       "coordinates":  [ 121.476706438912,25.0169734871809 ]
    },
    "properties": {
    "name":"廣和藥師藥局",
    "addr":"新北市板橋區中山路2段150號1樓、2樓、3樓",
    "district":"板橋區",
    "phone":"02-29522070"
    }
  },
  {
    "type": "Feature",
    "geometry": {
       "type": "Point",
       "coordinates":  [ 121.459794204513,25.0054440941216 ]
    },
    "properties": {
    "name":"民川藥局",
    "addr":"新北市板橋區四川路1段97號1樓",
    "district":"板橋區",
    "phone":"02-29520090"
    }
  },
  {
    "type": "Feature",
    "geometry": {
       "type": "Point",
       "coordinates":  [ 121.464558558153,25.0029926547268 ]
    },
    "properties": {
    "name":"康匯藥局",
    "addr":"新北市板橋區實踐路201號1樓",
    "district":"板橋區",
    "phone":"02-29512610"
    }
  },
  {
    "type": "Feature",
    "geometry": {
       "type": "Point",
       "coordinates":  [ 121.469789776389,25.0118106153046 ]
    },
    "properties": {
    "name":"順儷新板藥局",
    "addr":"新北市板橋區漢生東路187號1樓",
    "district":"板橋區",
    "phone":"02-29512590"
    }
  },
  {
    "type": "Feature",
    "geometry": {
       "type": "Point",
       "coordinates":  [ 121.504958224001,24.9930782616118 ]
    },
    "properties": {
    "name":"美佳大藥局",
    "addr":"新北市中和區景安路185號",
    "district":"中和區",
    "phone":"02-29496560"
    }
  },
  {
    "type": "Feature",
    "geometry": {
       "type": "Point",
       "coordinates":  [ 121.517540913398,24.9980522065493 ]
    },
    "properties": {
    "name":"敦品民治藥局",
    "addr":"新北市永和區民治街81號1樓",
    "district":"永和區",
    "phone":"02-29494150"
    }
  },
  {
    "type": "Feature",
    "geometry": {
       "type": "Point",
       "coordinates":  [ 121.509514923648,24.9902476430436 ]
    },
    "properties": {
    "name":"躍獅天晴藥局",
    "addr":"新北市中和區和平街9號1樓",
    "district":"中和區",
    "phone":"02-29491931"
    }
  },
  {
    "type": "Feature",
    "geometry": {
       "type": "Point",
       "coordinates":  [ 121.522214311887,24.9952689838664 ]
    },
    "properties": {
    "name":"聖康藥師藥局",
    "addr":"新北市中和區自立路39號1樓",
    "district":"中和區",
    "phone":"02-29478002"
    }
  },
  {
    "type": "Feature",
    "geometry": {
       "type": "Point",
       "coordinates":  [ 121.516939787617,24.9991608556928 ]
    },
    "properties": {
    "name":"永正健康人生藥局",
    "addr":"新北市永和區中正路191號1樓、193號1樓、197號2樓、197號2樓-1",
    "district":"永和區",
    "phone":"02-29467351"
    }
  },
  {
    "type": "Feature",
    "geometry": {
       "type": "Point",
       "coordinates":  [ 121.511618656025,24.992312633086 ]
    },
    "properties": {
    "name":"悠悅藥局",
    "addr":"新北市中和區安樂路25號2樓",
    "district":"中和區",
    "phone":"02-29463755"
    }
  },
  {
    "type": "Feature",
    "geometry": {
       "type": "Point",
       "coordinates":  [ 121.523561057144,24.9918646805574 ]
    },
    "properties": {
    "name":"吉立藥局",
    "addr":"新北市中和區自立路183號1樓",
    "district":"中和區",
    "phone":"02-29400461"
    }
  },
  {
    "type": "Feature",
    "geometry": {
       "type": "Point",
       "coordinates":  [ 121.510222206783,25.0060803772071 ]
    },
    "properties": {
    "name":"級立健保藥局",
    "addr":"新北市永和區保平路139號1樓",
    "district":"永和區",
    "phone":"02-29299995"
    }
  },
  {
    "type": "Feature",
    "geometry": {
       "type": "Point",
       "coordinates":  [ 121.517621280817,25.0061038891007 ]
    },
    "properties": {
    "name":"永利藥局",
    "addr":"新北市永和區永利路9、11號1樓",
    "district":"永和區",
    "phone":"02-29291655"
    }
  },
  {
    "type": "Feature",
    "geometry": {
       "type": "Point",
       "coordinates":  [ 121.513557085495,25.0035936676045 ]
    },
    "properties": {
    "name":"和欣泰藥局",
    "addr":"新北市中和區永貞路223號1樓",
    "district":"中和區",
    "phone":"02-29290867"
    }
  },
  {
    "type": "Feature",
    "geometry": {
       "type": "Point",
       "coordinates":  [ 121.515159198389,25.0100696582103 ]
    },
    "properties": {
    "name":"廣惠藥局",
    "addr":"新北市永和區中正路649號2樓",
    "district":"永和區",
    "phone":"02-29290675"
    }
  },
  {
    "type": "Feature",
    "geometry": {
       "type": "Point",
       "coordinates":  [ 121.524413704274,25.0015205646644 ]
    },
    "properties": {
    "name":"富士山藥局",
    "addr":"新北市永和區秀朗路2段118號1樓",
    "district":"永和區",
    "phone":"02-29289383"
    }
  },
  {
    "type": "Feature",
    "geometry": {
       "type": "Point",
       "coordinates":  [ 121.510568060033,25.0133103920694 ]
    },
    "properties": {
    "name":"康宏安藥局",
    "addr":"新北市永和區保福路2段78號1樓",
    "district":"永和區",
    "phone":"02-29288118"
    }
  },
  {
    "type": "Feature",
    "geometry": {
       "type": "Point",
       "coordinates":  [ 121.517652838894,25.0130636154826 ]
    },
    "properties": {
    "name":"弘光藥局",
    "addr":"新北市永和區竹林路中興里66巷19號1樓",
    "district":"永和區",
    "phone":"02-29282000"
    }
  },
  {
    "type": "Feature",
    "geometry": {
       "type": "Point",
       "coordinates":  [ 121.514724996117,25.0149941685213 ]
    },
    "properties": {
    "name":"皇誼藥局",
    "addr":"新北市永和區文化路33號",
    "district":"永和區",
    "phone":"02-29278732"
    }
  },
  {
    "type": "Feature",
    "geometry": {
       "type": "Point",
       "coordinates":  [ 121.507542824847,25.0139288693969 ]
    },
    "properties": {
    "name":"保安藥局",
    "addr":"新北市永和區保安路212號1樓",
    "district":"永和區",
    "phone":"02-29277623"
    }
  },
  {
    "type": "Feature",
    "geometry": {
       "type": "Point",
       "coordinates":  [ 121.509392761386,25.0009270953237 ]
    },
    "properties": {
    "name":"威成藥局",
    "addr":"新北市永和區中和路429號1樓",
    "district":"永和區",
    "phone":"02-29263191"
    }
  },
  {
    "type": "Feature",
    "geometry": {
       "type": "Point",
       "coordinates":  [ 121.522023870213,25.0000668687915 ]
    },
    "properties": {
    "name":"偉凱藥局",
    "addr":"新北市永和區永元路6號1樓",
    "district":"永和區",
    "phone":"02-29242595"
    }
  },
  {
    "type": "Feature",
    "geometry": {
       "type": "Point",
       "coordinates":  [ 121.511678413075,25.0031367372446 ]
    },
    "properties": {
    "name":"太乙大藥局",
    "addr":"新北市中和區中和路418號1樓",
    "district":"中和區",
    "phone":"02-29242169"
    }
  },
  {
    "type": "Feature",
    "geometry": {
       "type": "Point",
       "coordinates":  [ 121.520736319951,25.0076561546972 ]
    },
    "properties": {
    "name":"永和大樹藥局",
    "addr":"新北市永和區福和路143號1、2樓",
    "district":"永和區",
    "phone":"02-29233377"
    }
  },
  {
    "type": "Feature",
    "geometry": {
       "type": "Point",
       "coordinates":  [ 121.515004418883,25.0069923355857 ]
    },
    "properties": {
    "name":"九州藥局",
    "addr":"新北市永和區自由街5號1樓",
    "district":"永和區",
    "phone":"02-29226879"
    }
  },
  {
    "type": "Feature",
    "geometry": {
       "type": "Point",
       "coordinates":  [ 121.51435247221,25.0120036694982 ]
    },
    "properties": {
    "name":"榮總藥局",
    "addr":"新北市永和區信義路15號1樓",
    "district":"永和區",
    "phone":"02-29216596"
    }
  },
  {
    "type": "Feature",
    "geometry": {
       "type": "Point",
       "coordinates":  [ 121.518470785364,25.0076322708047 ]
    },
    "properties": {
    "name":"緣來藥師藥局",
    "addr":"新北市永和區福和路250、252號1樓",
    "district":"永和區",
    "phone":"02-29211798"
    }
  },
  {
    "type": "Feature",
    "geometry": {
       "type": "Point",
       "coordinates":  [ 121.509148526233,25.0090800023689 ]
    },
    "properties": {
    "name":"詠悅藥局",
    "addr":"新北市永和區中山路1段174號1樓",
    "district":"永和區",
    "phone":"02-29205760"
    }
  },
  {
    "type": "Feature",
    "geometry": {
       "type": "Point",
       "coordinates":  [ 121.538370171018,24.9572636590871 ]
    },
    "properties": {
    "name":"康宜庭碧潭藥局",
    "addr":"新北市新店區北宜路1段41號1樓",
    "district":"新店區",
    "phone":"02-29186266"
    }
  },
  {
    "type": "Feature",
    "geometry": {
       "type": "Point",
       "coordinates":  [ 121.438417227431,25.084831068979 ]
    },
    "properties": {
    "name":"常安藥局",
    "addr":"新北市五股區工商路71號",
    "district":"五股區",
    "phone":"02-22917912"
    }
  },
  {
    "type": "Feature",
    "geometry": {
       "type": "Point",
       "coordinates":  [ 121.535130815843,24.9750190557102 ]
    },
    "properties": {
    "name":"大河藥局",
    "addr":"新北市新店區三民路140號1樓",
    "district":"新店區",
    "phone":"02-29140910"
    }
  },
  {
    "type": "Feature",
    "geometry": {
       "type": "Point",
       "coordinates":  [ 121.538408393692,24.979654290456 ]
    },
    "properties": {
    "name":"東碩藥局",
    "addr":"新北市新店區建國路168號1樓",
    "district":"新店區",
    "phone":"02-29118281"
    }
  },
  {
    "type": "Feature",
    "geometry": {
       "type": "Point",
       "coordinates":  [ 121.536756793363,24.9712710050372 ]
    },
    "properties": {
    "name":"新店家安藥局",
    "addr":"新北市新店區三民路32-1號2樓",
    "district":"新店區",
    "phone":"02-29117207"
    }
  },
  {
    "type": "Feature",
    "geometry": {
       "type": "Point",
       "coordinates":  [ 121.541884285138,24.9715591583822 ]
    },
    "properties": {
    "name":"瑞安健保藥局",
    "addr":"新北市新店區中正路142號1樓",
    "district":"新店區",
    "phone":"02-29105252"
    }
  },
  {
    "type": "Feature",
    "geometry": {
       "type": "Point",
       "coordinates":  [ 121.481229897213,25.080344464856 ]
    },
    "properties": {
    "name":"徐匯藥局",
    "addr":"新北市三重區仁愛街755號1樓",
    "district":"三重區",
    "phone":"02-28572234"
    }
  },
  {
    "type": "Feature",
    "geometry": {
       "type": "Point",
       "coordinates":  [ 121.482323616869,25.086776560445 ]
    },
    "properties": {
    "name":"康泉藥師藥局",
    "addr":"新北市蘆洲區集賢路224巷2號1樓",
    "district":"蘆洲區",
    "phone":"02-28476990"
    }
  },
  {
    "type": "Feature",
    "geometry": {
       "type": "Point",
       "coordinates":  [ 121.461734432883,25.1378074809908 ]
    },
    "properties": {
    "name":"躍獅竹圍藥局",
    "addr":"新北市淡水區民生路46號",
    "district":"淡水區",
    "phone":"02-28090565"
    }
  },
  {
    "type": "Feature",
    "geometry": {
       "type": "Point",
       "coordinates":  [ 121.422964086123,25.1814429724002 ]
    },
    "properties": {
    "name":"淡海藥師藥局",
    "addr":"新北市淡水區淡海路85號",
    "district":"淡水區",
    "phone":"02-28052668"
    }
  },
  {
    "type": "Feature",
    "geometry": {
       "type": "Point",
       "coordinates":  [ 121.44998493632,25.0022139982576 ]
    },
    "properties": {
    "name":"民侑藥局",
    "addr":"新北市板橋區大觀路2段37巷310號",
    "district":"板橋區",
    "phone":"02-22755938"
    }
  },
  {
    "type": "Feature",
    "geometry": {
       "type": "Point",
       "coordinates":  [ 121.62862973254,25.0701233811869 ]
    },
    "properties": {
    "name":"好醫生活藥局",
    "addr":"新北市汐止區明峰街179-1號1樓",
    "district":"汐止區",
    "phone":"02-26958811"
    }
  },
  {
    "type": "Feature",
    "geometry": {
       "type": "Point",
       "coordinates":  [ 121.627935085488,25.0645566535822 ]
    },
    "properties": {
    "name":"快樂藥局汐止店",
    "addr":"新北市汐止區福德二路215號1樓",
    "district":"汐止區",
    "phone":"02-26931390"
    }
  },
  {
    "type": "Feature",
    "geometry": {
       "type": "Point",
       "coordinates":  [ 121.632029891484,25.0649438286412 ]
    },
    "properties": {
    "name":"汐興藥局",
    "addr":"新北市汐止區中興路113號1樓",
    "district":"汐止區",
    "phone":"02-26927733"
    }
  },
  {
    "type": "Feature",
    "geometry": {
       "type": "Point",
       "coordinates":  [ 121.654791305565,25.0625560337215 ]
    },
    "properties": {
    "name":"長頸鹿藥局",
    "addr":"新北市汐止區新台五路1段178號1樓",
    "district":"汐止區",
    "phone":"02-26917810"
    }
  },
  {
    "type": "Feature",
    "geometry": {
       "type": "Point",
       "coordinates":  [ 121.654777962379,25.0608299667963 ]
    },
    "properties": {
    "name":"青山藥局",
    "addr":"新北市汐止區莊敬街127號1樓",
    "district":"汐止區",
    "phone":"02-26907959"
    }
  },
  {
    "type": "Feature",
    "geometry": {
       "type": "Point",
       "coordinates":  [ 121.653797682105,25.0618789182239 ]
    },
    "properties": {
    "name":"蒲公英藥局",
    "addr":"新北市汐止區連興街126號1樓",
    "district":"汐止區",
    "phone":"02-26907770"
    }
  },
  {
    "type": "Feature",
    "geometry": {
       "type": "Point",
       "coordinates":  [ 121.413293203351,25.0039923283074 ]
    },
    "properties": {
    "name":"保安健保藥局",
    "addr":"新北市樹林區保安街2段211號1樓",
    "district":"樹林區",
    "phone":"02-26898179"
    }
  },
  {
    "type": "Feature",
    "geometry": {
       "type": "Point",
       "coordinates":  [ 121.402954626163,25.0157682737936 ]
    },
    "properties": {
    "name":"生光堂藥局",
    "addr":"新北市樹林區龍興街36號1樓",
    "district":"樹林區",
    "phone":"02-26896504"
    }
  },
  {
    "type": "Feature",
    "geometry": {
       "type": "Point",
       "coordinates":  [ 121.410251154625,25.0159986077801 ]
    },
    "properties": {
    "name":"仁一藥局",
    "addr":"新北市樹林區中正路622號",
    "district":"樹林區",
    "phone":"02-26893915"
    }
  },
  {
    "type": "Feature",
    "geometry": {
       "type": "Point",
       "coordinates":  [ 121.424744673356,24.994648544498 ]
    },
    "properties": {
    "name":"澤安藥師藥局",
    "addr":"新北市樹林區保安二街26號1樓",
    "district":"樹林區",
    "phone":"02-26872764"
    }
  },
  {
    "type": "Feature",
    "geometry": {
       "type": "Point",
       "coordinates":  [ 121.426989319806,24.9891551989602 ]
    },
    "properties": {
    "name":"溪崑藥局",
    "addr":"新北市板橋區溪崑二街97號2樓",
    "district":"板橋區",
    "phone":"02-26872464"
    }
  },
  {
    "type": "Feature",
    "geometry": {
       "type": "Point",
       "coordinates":  [ 121.424865176015,24.992979080786 ]
    },
    "properties": {
    "name":"誠新大藥局",
    "addr":"新北市樹林區中山路1段24號1樓",
    "district":"樹林區",
    "phone":"02-26870204"
    }
  },
  {
    "type": "Feature",
    "geometry": {
       "type": "Point",
       "coordinates":  [ 121.428821106298,24.9917536787194 ]
    },
    "properties": {
    "name":"振昌藥局",
    "addr":"新北市板橋區溪崑二街14號1樓",
    "district":"板橋區",
    "phone":"02-26862119"
    }
  },
  {
    "type": "Feature",
    "geometry": {
       "type": "Point",
       "coordinates":  [ 121.429431312359,24.9858171238791 ]
    },
    "properties": {
    "name":"旭全藥局",
    "addr":"新北市板橋區金門街331號",
    "district":"板橋區",
    "phone":"02-26860526"
    }
  },
  {
    "type": "Feature",
    "geometry": {
       "type": "Point",
       "coordinates":  [ 121.425319991412,24.9892125319694 ]
    },
    "properties": {
    "name":"祥聖藥局",
    "addr":"新北市板橋區溪崑2街112巷35弄1號",
    "district":"板橋區",
    "phone":"02-26835677"
    }
  },
  {
    "type": "Feature",
    "geometry": {
       "type": "Point",
       "coordinates":  [ 121.422546184555,24.994625550022 ]
    },
    "properties": {
    "name":"瑪諾藥局",
    "addr":"新北市樹林區復興路20號",
    "district":"樹林區",
    "phone":"02-26830108"
    }
  },
  {
    "type": "Feature",
    "geometry": {
       "type": "Point",
       "coordinates":  [ 121.426047028416,24.9931489698407 ]
    },
    "properties": {
    "name":"樹林藥師藥局",
    "addr":"新北市樹林區鎮前街24號1樓",
    "district":"樹林區",
    "phone":"02-26823030"
    }
  },
  {
    "type": "Feature",
    "geometry": {
       "type": "Point",
       "coordinates":  [ 121.425700994636,24.9906118794458 ]
    },
    "properties": {
    "name":"信和藥局",
    "addr":"新北市樹林區博愛街178號2樓",
    "district":"樹林區",
    "phone":"02-26821991"
    }
  },
  {
    "type": "Feature",
    "geometry": {
       "type": "Point",
       "coordinates":  [ 121.427103664011,24.9944653628665 ]
    },
    "properties": {
    "name":"樹新藥局",
    "addr":"新北市樹林區樹新路30-3號1樓",
    "district":"樹林區",
    "phone":"02-26821080"
    }
  },
  {
    "type": "Feature",
    "geometry": {
       "type": "Point",
       "coordinates":  [ 121.425871985782,24.9925498483313 ]
    },
    "properties": {
    "name":"活水藥局",
    "addr":"新北市樹林區鎮前街21號1樓",
    "district":"樹林區",
    "phone":"02-26818928"
    }
  },
  {
    "type": "Feature",
    "geometry": {
       "type": "Point",
       "coordinates":  [ 121.423176478098,24.9917805843966 ]
    },
    "properties": {
    "name":"又怡藥師藥局",
    "addr":"新北市樹林區中山路1段76巷2號1樓",
    "district":"樹林區",
    "phone":"02-26816886"
    }
  },
  {
    "type": "Feature",
    "geometry": {
       "type": "Point",
       "coordinates":  [ 121.422117710223,24.9890791032071 ]
    },
    "properties": {
    "name":"合康藥局",
    "addr":"新北市樹林區中山路1段151號-1",
    "district":"樹林區",
    "phone":"02-26816559"
    }
  },
  {
    "type": "Feature",
    "geometry": {
       "type": "Point",
       "coordinates":  [ 121.421303464125,24.9892826695211 ]
    },
    "properties": {
    "name":"樹林大樹藥局",
    "addr":"新北市樹林區育英街54號1-2樓",
    "district":"樹林區",
    "phone":"02-26815488"
    }
  },
  {
    "type": "Feature",
    "geometry": {
       "type": "Point",
       "coordinates":  [ 121.425555203976,24.9909132365226 ]
    },
    "properties": {
    "name":"健康人生藥局",
    "addr":"新北市樹林區博愛一街26號1樓",
    "district":"樹林區",
    "phone":"02-26814394"
    }
  },
  {
    "type": "Feature",
    "geometry": {
       "type": "Point",
       "coordinates":  [ 121.421630031519,24.9958544516424 ]
    },
    "properties": {
    "name":"育生藥局",
    "addr":"新北市樹林區保安街1段192號1樓",
    "district":"樹林區",
    "phone":"02-26814385"
    }
  },
  {
    "type": "Feature",
    "geometry": {
       "type": "Point",
       "coordinates":  [ 121.381815188976,24.9458389529473 ]
    },
    "properties": {
    "name":"三樹食在好藥局",
    "addr":"新北市樹林區學成路600號1樓",
    "district":"樹林區",
    "phone":"02-26807101"
    }
  },
  {
    "type": "Feature",
    "geometry": {
       "type": "Point",
       "coordinates":  [ 121.379682059281,24.9502805346814 ]
    },
    "properties": {
    "name":"祐心藥局",
    "addr":"新北市樹林區學府路362號1樓",
    "district":"樹林區",
    "phone":"02-26803205"
    }
  },
  {
    "type": "Feature",
    "geometry": {
       "type": "Point",
       "coordinates":  [ 121.351439425494,24.9527037487393 ]
    },
    "properties": {
    "name":"純安大藥局",
    "addr":"新北市鶯歌區國慶街179號1樓",
    "district":"鶯歌區",
    "phone":"02-26791791"
    }
  },
  {
    "type": "Feature",
    "geometry": {
       "type": "Point",
       "coordinates":  [ 121.345450686651,24.9559164127688 ]
    },
    "properties": {
    "name":"小樹藥師藥局",
    "addr":"新北市鶯歌區光明街126號1樓",
    "district":"鶯歌區",
    "phone":"02-26785107"
    }
  },
  {
    "type": "Feature",
    "geometry": {
       "type": "Point",
       "coordinates":  [ 121.35598650648,24.9559572775881 ]
    },
    "properties": {
    "name":"祐康藥局",
    "addr":"新北市鶯歌區建國路36號",
    "district":"鶯歌區",
    "phone":"02-26771223"
    }
  },
  {
    "type": "Feature",
    "geometry": {
       "type": "Point",
       "coordinates":  [ 121.40471798043,25.0161893869191 ]
    },
    "properties": {
    "name":"立欣藥局",
    "addr":"新北市樹林區三福街166號",
    "district":"樹林區",
    "phone":"02-26764728"
    }
  },
  {
    "type": "Feature",
    "geometry": {
       "type": "Point",
       "coordinates":  [ 121.431585545343,24.992680868708 ]
    },
    "properties": {
    "name":"浮洲藥局",
    "addr":"新北市板橋區大觀路3段219巷8號1樓",
    "district":"板橋區",
    "phone":"02-26758610"
    }
  },
  {
    "type": "Feature",
    "geometry": {
       "type": "Point",
       "coordinates":  [ 121.428891202173,24.9853874822233 ]
    },
    "properties": {
    "name":"家碩藥局",
    "addr":"新北市板橋區金門街300號",
    "district":"板橋區",
    "phone":"02-26755715"
    }
  },
  {
    "type": "Feature",
    "geometry": {
       "type": "Point",
       "coordinates":  [ 121.375870502185,24.9445242480367 ]
    },
    "properties": {
    "name":"大家好藥粧藥局",
    "addr":"新北市三峽區大德路127號1樓",
    "district":"三峽區",
    "phone":"02-26747022"
    }
  },
  {
    "type": "Feature",
    "geometry": {
       "type": "Point",
       "coordinates":  [ 121.373379923804,24.9308402477198 ]
    },
    "properties": {
    "name":"誠祐藥局",
    "addr":"新北市三峽區光明路22號1樓",
    "district":"三峽區",
    "phone":"02-26746211"
    }
  },
  {
    "type": "Feature",
    "geometry": {
       "type": "Point",
       "coordinates":  [ 121.37879192237,24.9437238968367 ]
    },
    "properties": {
    "name":"北大藥局",
    "addr":"新北市三峽區大義路9號1、2樓",
    "district":"三峽區",
    "phone":"02-26738535"
    }
  },
  {
    "type": "Feature",
    "geometry": {
       "type": "Point",
       "coordinates":  [ 121.369925234434,24.9359844793494 ]
    },
    "properties": {
    "name":"祥祐藥局",
    "addr":"新北市三峽區文化路125號1樓",
    "district":"三峽區",
    "phone":"02-26738080"
    }
  },
  {
    "type": "Feature",
    "geometry": {
       "type": "Point",
       "coordinates":  [ 121.366127080051,24.9358566315142 ]
    },
    "properties": {
    "name":"如音藥局",
    "addr":"新北市三峽區文化路266-1號1樓",
    "district":"三峽區",
    "phone":"02-26732119"
    }
  },
  {
    "type": "Feature",
    "geometry": {
       "type": "Point",
       "coordinates":  [ 121.374180518515,24.9326527506744 ]
    },
    "properties": {
    "name":"兆康藥局",
    "addr":"新北市三峽區中華路22號1樓",
    "district":"三峽區",
    "phone":"02-26717977"
    }
  },
  {
    "type": "Feature",
    "geometry": {
       "type": "Point",
       "coordinates":  [ 121.646407478269,25.0883526331682 ]
    },
    "properties": {
    "name":"汐止立欣藥局",
    "addr":"新北市汐止區汐萬路2段249號1樓",
    "district":"汐止區",
    "phone":"02-26464546"
    }
  },
  {
    "type": "Feature",
    "geometry": {
       "type": "Point",
       "coordinates":  [ 121.645795609162,25.0895557636714 ]
    },
    "properties": {
    "name":"翔云大藥局",
    "addr":"新北市汐止區祥雲街2號-1(1樓)",
    "district":"汐止區",
    "phone":"02-26463119"
    }
  },
  {
    "type": "Feature",
    "geometry": {
       "type": "Point",
       "coordinates":  [ 121.664379094152,25.0655339341961 ]
    },
    "properties": {
    "name":"杏恩健保藥局",
    "addr":"新北市汐止區仁愛路189號",
    "district":"汐止區",
    "phone":"02-26435728"
    }
  },
  {
    "type": "Feature",
    "geometry": {
       "type": "Point",
       "coordinates":  [ 121.661665665344,25.0728723657721 ]
    },
    "properties": {
    "name":"杏光藥局",
    "addr":"新北市汐止區建成路59巷19號1樓",
    "district":"汐止區",
    "phone":"02-26411340"
    }
  },
  {
    "type": "Feature",
    "geometry": {
       "type": "Point",
       "coordinates":  [ 121.504326853166,25.2572060999293 ]
    },
    "properties": {
    "name":"富康輝藥局",
    "addr":"新北市三芝區中正路1段86.88號1樓",
    "district":"三芝區",
    "phone":"02-26363836"
    }
  },
  {
    "type": "Feature",
    "geometry": {
       "type": "Point",
       "coordinates":  [ 121.446783966512,25.183143275913 ]
    },
    "properties": {
    "name":"四季寶健保藥局",
    "addr":"新北市淡水區新市一路3段117-1號(含夾層)",
    "district":"淡水區",
    "phone":"02-26283199"
    }
  },
  {
    "type": "Feature",
    "geometry": {
       "type": "Point",
       "coordinates":  [ 121.444494314446,25.1847083110357 ]
    },
    "properties": {
    "name":"池慶藥局",
    "addr":"新北市淡水區中山北路2段176號1樓",
    "district":"淡水區",
    "phone":"02-26238852"
    }
  },
  {
    "type": "Feature",
    "geometry": {
       "type": "Point",
       "coordinates":  [ 121.441306321209,25.1748024158346 ]
    },
    "properties": {
    "name":"聖天藥局",
    "addr":"新北市淡水區重建街218號",
    "district":"淡水區",
    "phone":"02-26215677"
    }
  },
  {
    "type": "Feature",
    "geometry": {
       "type": "Point",
       "coordinates":  [ 121.405320483656,25.1497125062563 ]
    },
    "properties": {
    "name":"杏家藥局",
    "addr":"新北市八里區中華路2段256號1樓",
    "district":"八里區",
    "phone":"02-26105369"
    }
  },
  {
    "type": "Feature",
    "geometry": {
       "type": "Point",
       "coordinates":  [ 121.442456013632,24.9738680823381 ]
    },
    "properties": {
    "name":"信豐藥局",
    "addr":"新北市土城區農豐街12號",
    "district":"土城區",
    "phone":"02-22609764"
    }
  },
  {
    "type": "Feature",
    "geometry": {
       "type": "Point",
       "coordinates":  [ 121.384078630186,25.0755151908007 ]
    },
    "properties": {
    "name":"林口啄木鳥藥局",
    "addr":"新北市林口區仁愛路2段80號",
    "district":"林口區",
    "phone":"02-26027547"
    }
  },
  {
    "type": "Feature",
    "geometry": {
       "type": "Point",
       "coordinates":  [ 121.375169271524,25.071355890028 ]
    },
    "properties": {
    "name":"康旭藥局",
    "addr":"新北市林口區麗園一街6巷9號1樓-3",
    "district":"林口區",
    "phone":"02-26007807"
    }
  },
  {
    "type": "Feature",
    "geometry": {
       "type": "Point",
       "coordinates":  [ 121.469976892418,25.0247801427384 ]
    },
    "properties": {
    "name":"宏達大藥局",
    "addr":"新北市板橋區莒光路17號",
    "district":"板橋區",
    "phone":"02-22528993"
    }
  },
  {
    "type": "Feature",
    "geometry": {
       "type": "Point",
       "coordinates":  [ 121.653688251847,25.0628410573759 ]
    },
    "properties": {
    "name":"安泰藥局",
    "addr":"新北市汐止區連興街114號1樓",
    "district":"汐止區",
    "phone":"02-25158069"
    }
  },
  {
    "type": "Feature",
    "geometry": {
       "type": "Point",
       "coordinates":  [ 121.80884608273,25.107427356454 ]
    },
    "properties": {
    "name":"瑞中藥局",
    "addr":"新北市瑞芳區明燈路3段5-1號1樓",
    "district":"瑞芳區",
    "phone":"02-24977879"
    }
  },
  {
    "type": "Feature",
    "geometry": {
       "type": "Point",
       "coordinates":  [ 121.81043330023,25.1069574223616 ]
    },
    "properties": {
    "name":"宏和藥局",
    "addr":"新北市瑞芳區三爪子坑路123號",
    "district":"瑞芳區",
    "phone":"02-24973126"
    }
  },
  {
    "type": "Feature",
    "geometry": {
       "type": "Point",
       "coordinates":  [ 121.806565272796,25.1081354290375 ]
    },
    "properties": {
    "name":"瑞光藥局",
    "addr":"新北市瑞芳區明燈路3段70號1樓",
    "district":"瑞芳區",
    "phone":"02-24972070"
    }
  },
  {
    "type": "Feature",
    "geometry": {
       "type": "Point",
       "coordinates":  [ 121.807725499311,25.1065780999073 ]
    },
    "properties": {
    "name":"永展藥局",
    "addr":"新北市瑞芳區民權街6巷1-1號1樓",
    "district":"瑞芳區",
    "phone":"02-24960500"
    }
  },
  {
    "type": "Feature",
    "geometry": {
       "type": "Point",
       "coordinates":  [ 121.502111374229,24.9973647321495 ]
    },
    "properties": {
    "name":"慈光藥局",
    "addr":"新北市中和區南山路117號",
    "district":"中和區",
    "phone":"02-22493382"
    }
  },
  {
    "type": "Feature",
    "geometry": {
       "type": "Point",
       "coordinates":  [ 121.499954478754,25.006232890356 ]
    },
    "properties": {
    "name":"宜生藥局",
    "addr":"新北市中和區莊敬路33巷3弄2號",
    "district":"中和區",
    "phone":"02-22490159"
    }
  },
  {
    "type": "Feature",
    "geometry": {
       "type": "Point",
       "coordinates":  [ 121.502861941577,25.0023961254073 ]
    },
    "properties": {
    "name":"上仁藥局",
    "addr":"新北市中和區中山路2段131巷11-1號",
    "district":"中和區",
    "phone":"02-22480074"
    }
  },
  {
    "type": "Feature",
    "geometry": {
       "type": "Point",
       "coordinates":  [ 121.49650867813,25.0045650876448 ]
    },
    "properties": {
    "name":"健星藥局",
    "addr":"新北市中和區景平路754號",
    "district":"中和區",
    "phone":"02-22403437"
    }
  },
  {
    "type": "Feature",
    "geometry": {
       "type": "Point",
       "coordinates":  [ 121.43416170006,25.0561942879592 ]
    },
    "properties": {
    "name":"苗園健保特約藥局",
    "addr":"新北市泰山區全興路161號1樓",
    "district":"泰山區",
    "phone":"02-22970736"
    }
  },
  {
    "type": "Feature",
    "geometry": {
       "type": "Point",
       "coordinates":  [ 121.459638595552,25.089728456487 ]
    },
    "properties": {
    "name":"知達健保藥局",
    "addr":"新北市蘆洲區長榮路502號1樓",
    "district":"蘆洲區",
    "phone":"02-22897753"
    }
  },
  {
    "type": "Feature",
    "geometry": {
       "type": "Point",
       "coordinates":  [ 121.460521135123,25.0816937780997 ]
    },
    "properties": {
    "name":"中美永結藥局",
    "addr":"新北市蘆洲區長安街185號1樓",
    "district":"蘆洲區",
    "phone":"02-22887676"
    }
  },
  {
    "type": "Feature",
    "geometry": {
       "type": "Point",
       "coordinates":  [ 121.471380139379,25.0818945791676 ]
    },
    "properties": {
    "name":"微笑杏鄰藥局",
    "addr":"新北市蘆洲區中正路15號1樓",
    "district":"蘆洲區",
    "phone":"02-22887076"
    }
  },
  {
    "type": "Feature",
    "geometry": {
       "type": "Point",
       "coordinates":  [ 121.478283490648,25.0867849783293 ]
    },
    "properties": {
    "name":"信義萊康藥局",
    "addr":"新北市蘆洲區信義路260號1樓",
    "district":"蘆洲區",
    "phone":"02-22885256"
    }
  },
  {
    "type": "Feature",
    "geometry": {
       "type": "Point",
       "coordinates":  [ 121.474392869032,25.0916454616743 ]
    },
    "properties": {
    "name":"永恩健康藥局",
    "addr":"新北市蘆洲區民族路414號1樓",
    "district":"蘆洲區",
    "phone":"02-22880379"
    }
  },
  {
    "type": "Feature",
    "geometry": {
       "type": "Point",
       "coordinates":  [ 121.483802722887,25.0764159182837 ]
    },
    "properties": {
    "name":"忠民藥局",
    "addr":"新北市三重區車路頭街162號1樓",
    "district":"三重區",
    "phone":"02-22868489"
    }
  },
  {
    "type": "Feature",
    "geometry": {
       "type": "Point",
       "coordinates":  [ 121.483033880547,25.0769881268777 ]
    },
    "properties": {
    "name":"力行德榮藥局",
    "addr":"新北市三重區力行路2段170號1樓",
    "district":"三重區",
    "phone":"02-22867170"
    }
  },
  {
    "type": "Feature",
    "geometry": {
       "type": "Point",
       "coordinates":  [ 121.474533170643,25.0822042188729 ]
    },
    "properties": {
    "name":"慶明藥局",
    "addr":"新北市蘆洲區中山二路46巷4號2樓",
    "district":"蘆洲區",
    "phone":"02-22855740"
    }
  },
  {
    "type": "Feature",
    "geometry": {
       "type": "Point",
       "coordinates":  [ 121.469428503932,25.0848487034251 ]
    },
    "properties": {
    "name":"廷升藥局",
    "addr":"新北市蘆洲區中正路122號1樓",
    "district":"蘆洲區",
    "phone":"02-22827670"
    }
  },
  {
    "type": "Feature",
    "geometry": {
       "type": "Point",
       "coordinates":  [ 121.462186802475,25.0838939410139 ]
    },
    "properties": {
    "name":"愛佳健保藥局",
    "addr":"新北市蘆洲區長榮路96號1樓",
    "district":"蘆洲區",
    "phone":"02-22825835"
    }
  },
  {
    "type": "Feature",
    "geometry": {
       "type": "Point",
       "coordinates":  [ 121.477004017446,25.0844742925328 ]
    },
    "properties": {
    "name":"隆生藥局",
    "addr":"新北市蘆洲區民族路52號1樓",
    "district":"蘆洲區",
    "phone":"02-22814653"
    }
  },
  {
    "type": "Feature",
    "geometry": {
       "type": "Point",
       "coordinates":  [ 121.469830461806,25.0836224295007 ]
    },
    "properties": {
    "name":"全家藥粧藥局",
    "addr":"新北市蘆洲區光華路6號1樓",
    "district":"蘆洲區",
    "phone":"02-22811215"
    }
  },
  {
    "type": "Feature",
    "geometry": {
       "type": "Point",
       "coordinates":  [ 121.4870840655,25.0820113501637 ]
    },
    "properties": {
    "name":"慈惠藥局",
    "addr":"新北市三重區仁愛街516號1樓及2樓",
    "district":"三重區",
    "phone":"02-22809009"
    }
  },
  {
    "type": "Feature",
    "geometry": {
       "type": "Point",
       "coordinates":  [ 121.447247185942,25.0382868041392 ]
    },
    "properties": {
    "name":"聯合藥局",
    "addr":"新北市新莊區新泰路194號2樓",
    "district":"新莊區",
    "phone":"02-22796464"
    }
  },
  {
    "type": "Feature",
    "geometry": {
       "type": "Point",
       "coordinates":  [ 121.446673255141,25.0024653321674 ]
    },
    "properties": {
    "name":"正康健保藥局",
    "addr":"新北市板橋區大觀路2段65號1樓",
    "district":"板橋區",
    "phone":"02-22756681"
    }
  },
  {
    "type": "Feature",
    "geometry": {
       "type": "Point",
       "coordinates":  [ 121.454327971997,24.9868567376912 ]
    },
    "properties": {
    "name":"活力藥局",
    "addr":"新北市土城區學府路1段158號1樓",
    "district":"土城區",
    "phone":"02-22748877"
    }
  },
  {
    "type": "Feature",
    "geometry": {
       "type": "Point",
       "coordinates":  [ 121.465283127957,24.9853828635323 ]
    },
    "properties": {
    "name":"舒民藥局",
    "addr":"新北市土城區明德路1段35號2樓",
    "district":"土城區",
    "phone":"02-22748654"
    }
  },
  {
    "type": "Feature",
    "geometry": {
       "type": "Point",
       "coordinates":  [ 121.456644040704,24.988292402401 ]
    },
    "properties": {
    "name":"大康藥局",
    "addr":"新北市土城區學府路1段72號2樓",
    "district":"土城區",
    "phone":"02-22738004"
    }
  },
  {
    "type": "Feature",
    "geometry": {
       "type": "Point",
       "coordinates":  [ 121.460869425115,25.0183265368771 ]
    },
    "properties": {
    "name":"景好藥師藥局",
    "addr":"新北市板橋區國光路182號1樓",
    "district":"板橋區",
    "phone":"02-22724728"
    }
  },
  {
    "type": "Feature",
    "geometry": {
       "type": "Point",
       "coordinates":  [ 121.447917504823,24.9889840514773 ]
    },
    "properties": {
    "name":"民亨藥局",
    "addr":"新北市土城區學成路172號",
    "district":"土城區",
    "phone":"02-22701485"
    }
  },
  {
    "type": "Feature",
    "geometry": {
       "type": "Point",
       "coordinates":  [ 121.436087627539,24.9670213769681 ]
    },
    "properties": {
    "name":"貓頭鷹藥妝藥局",
    "addr":"新北市土城區中央路3段88號、90號1樓",
    "district":"土城區",
    "phone":"02-22695659"
    }
  },
  {
    "type": "Feature",
    "geometry": {
       "type": "Point",
       "coordinates":  [ 121.448233192668,24.9872591536298 ]
    },
    "properties": {
    "name":"家庭藥師連鎖藥局",
    "addr":"新北市土城區裕生路23號1樓",
    "district":"土城區",
    "phone":"02-22663601"
    }
  },
  {
    "type": "Feature",
    "geometry": {
       "type": "Point",
       "coordinates":  [ 121.452229800096,24.9859527139488 ]
    },
    "properties": {
    "name":"德隆藥局",
    "addr":"新北市土城區裕民路153號1樓",
    "district":"土城區",
    "phone":"02-22656056"
    }
  },
  {
    "type": "Feature",
    "geometry": {
       "type": "Point",
       "coordinates":  [ 121.457411996954,24.9830262883008 ]
    },
    "properties": {
    "name":"育佳藥局",
    "addr":"新北市土城區金城路2段242巷7號1樓",
    "district":"土城區",
    "phone":"02-22645692"
    }
  },
  {
    "type": "Feature",
    "geometry": {
       "type": "Point",
       "coordinates":  [ 121.465287449587,24.9847635149527 ]
    },
    "properties": {
    "name":"廣昇健保藥師藥局",
    "addr":"新北市土城區明德路1段53號",
    "district":"土城區",
    "phone":"02-22638300"
    }
  },
  {
    "type": "Feature",
    "geometry": {
       "type": "Point",
       "coordinates":  [ 121.449888187922,24.9872132527791 ]
    },
    "properties": {
    "name":"健群藥局",
    "addr":"新北市土城區裕民路80號2樓",
    "district":"土城區",
    "phone":"02-22634747"
    }
  },
  {
    "type": "Feature",
    "geometry": {
       "type": "Point",
       "coordinates":  [ 121.452221750332,24.9856858372074 ]
    },
    "properties": {
    "name":"埔銓藥局",
    "addr":"新北市土城區裕民路164號1樓",
    "district":"土城區",
    "phone":"02-22630230"
    }
  },
  {
    "type": "Feature",
    "geometry": {
       "type": "Point",
       "coordinates":  [ 121.451760167114,24.9845892090256 ]
    },
    "properties": {
    "name":"吉城大藥局",
    "addr":"新北市土城區學府路1段205號1樓",
    "district":"土城區",
    "phone":"02-22626870"
    }
  },
  {
    "type": "Feature",
    "geometry": {
       "type": "Point",
       "coordinates":  [ 121.466351363135,24.9846465288859 ]
    },
    "properties": {
    "name":"美康藥妝藥局",
    "addr":"新北市土城區延吉街254號1樓",
    "district":"土城區",
    "phone":"02-22616868"
    }
  },
  {
    "type": "Feature",
    "geometry": {
       "type": "Point",
       "coordinates":  [ 121.467772080412,24.990327861042 ]
    },
    "properties": {
    "name":"國安健保藥局",
    "addr":"新北市土城區延和路109號1樓",
    "district":"土城區",
    "phone":"02-22614933"
    }
  },
  {
    "type": "Feature",
    "geometry": {
       "type": "Point",
       "coordinates":  [ 121.473015515995,25.021538095693 ]
    },
    "properties": {
    "name":"正吉藥局",
    "addr":"新北市板橋區莊敬路241號1樓",
    "district":"板橋區",
    "phone":"02-22595183"
    }
  },
  {
    "type": "Feature",
    "geometry": {
       "type": "Point",
       "coordinates":  [ 121.477794667923,25.0270731835417 ]
    },
    "properties": {
    "name":"新進發大藥局",
    "addr":"新北市板橋區大同街24號1樓",
    "district":"板橋區",
    "phone":"02-22593926"
    }
  },
  {
    "type": "Feature",
    "geometry": {
       "type": "Point",
       "coordinates":  [ 121.462668770395,25.0296536777726 ]
    },
    "properties": {
    "name":"廣信健保藥局",
    "addr":"新北市板橋區四維路304號1樓",
    "district":"板橋區",
    "phone":"02-22592918"
    }
  },
  {
    "type": "Feature",
    "geometry": {
       "type": "Point",
       "coordinates":  [ 121.474253941458,25.0287412726931 ]
    },
    "properties": {
    "name":"正陽藥局",
    "addr":"新北市板橋區雙十路2段116號1樓",
    "district":"板橋區",
    "phone":"02-22592667"
    }
  },
  {
    "type": "Feature",
    "geometry": {
       "type": "Point",
       "coordinates":  [ 121.478357366329,25.0310546902027 ]
    },
    "properties": {
    "name":"濟安堂藥局",
    "addr":"新北市板橋區民治街117號1樓",
    "district":"板橋區",
    "phone":"02-22587973"
    }
  },
  {
    "type": "Feature",
    "geometry": {
       "type": "Point",
       "coordinates":  [ 121.462822350688,25.0293593900099 ]
    },
    "properties": {
    "name":"上嘉藥局",
    "addr":"新北市板橋區四維路296號1樓",
    "district":"板橋區",
    "phone":"02-22582278"
    }
  },
  {
    "type": "Feature",
    "geometry": {
       "type": "Point",
       "coordinates":  [ 121.462191695117,25.0300882327956 ]
    },
    "properties": {
    "name":"廣安健保藥師藥局",
    "addr":"新北市板橋區四維路355號1樓",
    "district":"板橋區",
    "phone":"02-22580963"
    }
  },
  {
    "type": "Feature",
    "geometry": {
       "type": "Point",
       "coordinates":  [ 121.461739426313,25.0220520297436 ]
    },
    "properties": {
    "name":"京躍藥局",
    "addr":"新北市板橋區新海路86號1樓",
    "district":"板橋區",
    "phone":"02-22580669"
    }
  },
  {
    "type": "Feature",
    "geometry": {
       "type": "Point",
       "coordinates":  [ 121.472829824781,25.0264508873454 ]
    },
    "properties": {
    "name":"莊敬健康人生藥局",
    "addr":"新北市板橋區莊敬路87號1樓",
    "district":"板橋區",
    "phone":"02-22570028"
    }
  },
  {
    "type": "Feature",
    "geometry": {
       "type": "Point",
       "coordinates":  [ 121.470900160042,25.0242087089207 ]
    },
    "properties": {
    "name":"躍獅莒光藥局",
    "addr":"新北市板橋區莒光路58號1樓",
    "district":"板橋區",
    "phone":"02-22556743"
    }
  },
  {
    "type": "Feature",
    "geometry": {
       "type": "Point",
       "coordinates":  [ 121.470983864846,25.0314271326656 ]
    },
    "properties": {
    "name":"廣欣藥師藥局",
    "addr":"新北市板橋區雙十路3段52號1樓",
    "district":"板橋區",
    "phone":"02-22540613"
    }
  },
  {
    "type": "Feature",
    "geometry": {
       "type": "Point",
       "coordinates":  [ 121.461832146614,25.0202259176705 ]
    },
    "properties": {
    "name":"詠濟藥局",
    "addr":"新北市板橋區幸福路23號",
    "district":"板橋區",
    "phone":"02-22536951"
    }
  },
  {
    "type": "Feature",
    "geometry": {
       "type": "Point",
       "coordinates":  [ 121.472310833966,25.0240805578381 ]
    },
    "properties": {
    "name":"廣明藥局",
    "addr":"新北市板橋區莒光路93號1樓",
    "district":"板橋區",
    "phone":"02-22536325"
    }
  },
  {
    "type": "Feature",
    "geometry": {
       "type": "Point",
       "coordinates":  [ 121.462371073242,25.0292140481521 ]
    },
    "properties": {
    "name":"裕苠藥局",
    "addr":"新北市板橋區裕民街6號",
    "district":"板橋區",
    "phone":"02-22535227"
    }
  },
  {
    "type": "Feature",
    "geometry": {
       "type": "Point",
       "coordinates":  [ 121.470241168372,25.0246455386002 ]
    },
    "properties": {
    "name":"金弘藥局",
    "addr":"新北市板橋區莒光路29號1樓",
    "district":"板橋區",
    "phone":"02-22531918"
    }
  },
  {
    "type": "Feature",
    "geometry": {
       "type": "Point",
       "coordinates":  [ 121.465673193048,25.0245728995166 ]
    },
    "properties": {
    "name":"幸福健保藥局",
    "addr":"新北市板橋區四維路106號1樓",
    "district":"板橋區",
    "phone":"02-22530009"
    }
  },
  {
    "type": "Feature",
    "geometry": {
       "type": "Point",
       "coordinates":  [ 121.350806014171,24.9534671256633 ]
    },
    "properties": {
    "name":"鶯歌宏達藥局",
    "addr":"新北市鶯歌區國慶街138號1樓",
    "district":"鶯歌區",
    "phone":"02-22528993"
    }
  },
  {
    "type": "Feature",
    "geometry": {
       "type": "Point",
       "coordinates":  [ 121.476309968487,25.030653886947 ]
    },
    "properties": {
    "name":"必生好藥局",
    "addr":"新北市板橋區松柏街67號1樓",
    "district":"板橋區",
    "phone":"02-22511057"
    }
  },
  {
    "type": "Feature",
    "geometry": {
       "type": "Point",
       "coordinates":  [ 121.465893292417,25.0219722274096 ]
    },
    "properties": {
    "name":"嘉恩健保藥局",
    "addr":"新北市板橋區陽明街40號2樓",
    "district":"板橋區",
    "phone":"02-22509566"
    }
  },
  {
    "type": "Feature",
    "geometry": {
       "type": "Point",
       "coordinates":  [ 121.461734094416,25.0265812141694 ]
    },
    "properties": {
    "name":"佳聯藥局",
    "addr":"新北市板橋區陽明街297號1樓",
    "district":"板橋區",
    "phone":"02-22506255"
    }
  },
  {
    "type": "Feature",
    "geometry": {
       "type": "Point",
       "coordinates":  [ 121.461759496022,25.0149533055527 ]
    },
    "properties": {
    "name":"晴天藥局",
    "addr":"新北市板橋區文化路1段116號2樓",
    "district":"板橋區",
    "phone":"02-22506165"
    }
  },
  {
    "type": "Feature",
    "geometry": {
       "type": "Point",
       "coordinates":  [ 121.473768563475,25.0225487246778 ]
    },
    "properties": {
    "name":"力安藥局",
    "addr":"新北市板橋區莒光路196巷8號1樓",
    "district":"板橋區",
    "phone":"02-22503349"
    }
  },
  {
    "type": "Feature",
    "geometry": {
       "type": "Point",
       "coordinates":  [ 121.461194747947,25.0229184282857 ]
    },
    "properties": {
    "name":"新海藥局",
    "addr":"新北市板橋區新海路122號1、2樓",
    "district":"板橋區",
    "phone":"02-22500190"
    }
  },
  {
    "type": "Feature",
    "geometry": {
       "type": "Point",
       "coordinates":  [ 121.499762899061,25.0022149939451 ]
    },
    "properties": {
    "name":"一安藥妝藥局",
    "addr":"新北市中和區中和路9號1、2樓",
    "district":"中和區",
    "phone":"02-22483778"
    }
  },
  {
    "type": "Feature",
    "geometry": {
       "type": "Point",
       "coordinates":  [ 121.503531932276,24.9903787628864 ]
    },
    "properties": {
    "name":"威宏藥局",
    "addr":"新北市中和區復興路262號",
    "district":"中和區",
    "phone":"02-22458558"
    }
  },
  {
    "type": "Feature",
    "geometry": {
       "type": "Point",
       "coordinates":  [ 121.496284670872,24.9993023035252 ]
    },
    "properties": {
    "name":"冠品藥師藥局",
    "addr":"新北市中和區連城路119號1樓",
    "district":"中和區",
    "phone":"02-22452129"
    }
  },
  {
    "type": "Feature",
    "geometry": {
       "type": "Point",
       "coordinates":  [ 121.502975063034,24.9957661611292 ]
    },
    "properties": {
    "name":"九崧藥局",
    "addr":"新北市中和區南華路20號1樓",
    "district":"中和區",
    "phone":"02-22451379"
    }
  },
  {
    "type": "Feature",
    "geometry": {
       "type": "Point",
       "coordinates":  [ 121.490947917934,24.9895981215929 ]
    },
    "properties": {
    "name":"安和藥師藥局",
    "addr":"新北市中和區錦和路410號1樓",
    "district":"中和區",
    "phone":"02-22433708"
    }
  },
  {
    "type": "Feature",
    "geometry": {
       "type": "Point",
       "coordinates":  [ 121.493836672602,24.991304283073 ]
    },
    "properties": {
    "name":"維康藥局雙和店",
    "addr":"新北市中和區圓通路252號1樓",
    "district":"中和區",
    "phone":"02-22431962"
    }
  },
  {
    "type": "Feature",
    "geometry": {
       "type": "Point",
       "coordinates":  [ 121.520938571703,25.003589847178 ]
    },
    "properties": {
    "name":"澄品藥局",
    "addr":"新北市永和區永利路96號1樓",
    "district":"永和區",
    "phone":"02-22329871"
    }
  },
  {
    "type": "Feature",
    "geometry": {
       "type": "Point",
       "coordinates":  [ 121.50772737005,25.0120559948657 ]
    },
    "properties": {
    "name":"永奕藥局",
    "addr":"新北市永和區永平路286-1號1樓",
    "district":"永和區",
    "phone":"02-22327709"
    }
  },
  {
    "type": "Feature",
    "geometry": {
       "type": "Point",
       "coordinates":  [ 121.518893281348,25.007467277097 ]
    },
    "properties": {
    "name":"欣安大藥局",
    "addr":"新北市永和區福和路221號1樓",
    "district":"永和區",
    "phone":"02-22326685"
    }
  },
  {
    "type": "Feature",
    "geometry": {
       "type": "Point",
       "coordinates":  [ 121.507292411683,25.0083888498144 ]
    },
    "properties": {
    "name":"悅美保健藥局",
    "addr":"新北市永和區保生路22巷21號1樓",
    "district":"永和區",
    "phone":"02-22323515"
    }
  },
  {
    "type": "Feature",
    "geometry": {
       "type": "Point",
       "coordinates":  [ 121.52259602663,25.0080812241977 ]
    },
    "properties": {
    "name":"星韻藥局",
    "addr":"新北市永和區福和路88號",
    "district":"永和區",
    "phone":"02-22319592"
    }
  },
  {
    "type": "Feature",
    "geometry": {
       "type": "Point",
       "coordinates":  [ 121.517517757801,25.0119998542915 ]
    },
    "properties": {
    "name":"台化藥局",
    "addr":"新北市永和區勵行街119號1樓",
    "district":"永和區",
    "phone":"02-22318686"
    }
  },
  {
    "type": "Feature",
    "geometry": {
       "type": "Point",
       "coordinates":  [ 121.520344149846,25.0001671104243 ]
    },
    "properties": {
    "name":"鳳軒藥局",
    "addr":"新北市永和區得和路239號1樓",
    "district":"永和區",
    "phone":"02-22315937"
    }
  },
  {
    "type": "Feature",
    "geometry": {
       "type": "Point",
       "coordinates":  [ 121.479868703815,25.0068294047755 ]
    },
    "properties": {
    "name":"榮記大藥局",
    "addr":"新北市中和區員山路482號1樓",
    "district":"中和區",
    "phone":"02-22239546"
    }
  },
  {
    "type": "Feature",
    "geometry": {
       "type": "Point",
       "coordinates":  [ 121.482890302634,24.9955237222777 ]
    },
    "properties": {
    "name":"健暉藥局",
    "addr":"新北市中和區連城路487號1樓",
    "district":"中和區",
    "phone":"02-22231437"
    }
  },
  {
    "type": "Feature",
    "geometry": {
       "type": "Point",
       "coordinates":  [ 121.536880032991,24.9762106792102 ]
    },
    "properties": {
    "name":"耕莘健康人生藥局",
    "addr":"新北市新店區民族路186號1樓",
    "district":"新店區",
    "phone":"02-22194743"
    }
  },
  {
    "type": "Feature",
    "geometry": {
       "type": "Point",
       "coordinates":  [ 121.474098623026,25.0029752098427 ]
    },
    "properties": {
    "name":"旭豐藥局",
    "addr":"新北市中和區民享街４１號",
    "district":"中和區",
    "phone":"02-22215393"
    }
  },
  {
    "type": "Feature",
    "geometry": {
       "type": "Point",
       "coordinates":  [ 121.428094178895,25.0190117711217 ]
    },
    "properties": {
    "name":"庭安藥局",
    "addr":"新北市新莊區西盛街172號1樓",
    "district":"新莊區",
    "phone":"02-22080528"
    }
  },
  {
    "type": "Feature",
    "geometry": {
       "type": "Point",
       "coordinates":  [ 121.446231760796,25.0339531116488 ]
    },
    "properties": {
    "name":"豐年藥局",
    "addr":"新北市新莊區中正路377巷16號",
    "district":"新莊區",
    "phone":"02-20711823"
    }
  },
  {
    "type": "Feature",
    "geometry": {
       "type": "Point",
       "coordinates":  [ 121.424247595976,25.0211220416287 ]
    },
    "properties": {
    "name":"蘋果藥局",
    "addr":"新北市新莊區八德街105號",
    "district":"新莊區",
    "phone":"02-22053933"
    }
  },
  {
    "type": "Feature",
    "geometry": {
       "type": "Point",
       "coordinates":  [ 121.42620058073,25.0225571046353 ]
    },
    "properties": {
    "name":"三大藥局",
    "addr":"新北市新莊區民安路197號",
    "district":"新莊區",
    "phone":"02-22030503"
    }
  },
  {
    "type": "Feature",
    "geometry": {
       "type": "Point",
       "coordinates":  [ 121.42703730702,25.0260404826495 ]
    },
    "properties": {
    "name":"錄新藥局",
    "addr":"新北市新莊區後港一路76巷10弄1號",
    "district":"新莊區",
    "phone":"02-22051849"
    }
  },
  {
    "type": "Feature",
    "geometry": {
       "type": "Point",
       "coordinates":  [ 121.423028200965,25.0241825113396 ]
    },
    "properties": {
    "name":"冠仁藥局",
    "addr":"新北市新莊區四維路126巷6號",
    "district":"新莊區",
    "phone":"02-22029415"
    }
  },
  {
    "type": "Feature",
    "geometry": {
       "type": "Point",
       "coordinates":  [ 121.427486094103,25.0204390711182 ]
    },
    "properties": {
    "name":"七安大藥局",
    "addr":"新北市新莊區民安西路55號1、2樓及57號1樓",
    "district":"新莊區",
    "phone":"02-22026066"
    }
  },
  {
    "type": "Feature",
    "geometry": {
       "type": "Point",
       "coordinates":  [ 121.336722571587,24.940067670958 ]
    },
    "properties": {
    "name":"佑家藥局",
    "addr":"新北市鶯歌區中正三路151號1樓",
    "district":"鶯歌區",
    "phone":"02-16798282"
    }
  },
  {
    "type": "Feature",
    "geometry": {
       "type": "Point",
       "coordinates":  [ 121.537745358315,24.982766933881 ]
    },
    "properties": {
    "name":"均安藥局",
    "addr":"新北市新店區民權路89號1樓",
    "district":"新店區",
    "phone":"02-29127861"
    }
  },
  {
    "type": "Feature",
    "geometry": {
       "type": "Point",
       "coordinates":  [ 121.548172305419,24.9514687014503 ]
    },
    "properties": {
    "name":"安欣藥局",
    "addr":"新北市新店區北宜路2段26號1樓",
    "district":"新店區",
    "phone":"02-22175450"
    }
  },
  {
    "type": "Feature",
    "geometry": {
       "type": "Point",
       "coordinates":  [ 121.509824465912,24.9594325303469 ]
    },
    "properties": {
    "name":"唯客優藥局",
    "addr":"新北市新店區安康路2段216號1樓",
    "district":"新店區",
    "phone":"02-22126097"
    }
  },
  {
    "type": "Feature",
    "geometry": {
       "type": "Point",
       "coordinates":  [ 121.537014024646,24.9828104953827 ]
    },
    "properties": {
    "name":"佑成藥局",
    "addr":"新北市新店區民權路101號1樓",
    "district":"新店區",
    "phone":"02-86673537"
    }
  },
  {
    "type": "Feature",
    "geometry": {
       "type": "Point",
       "coordinates":  [ 121.509204333283,24.9591537230934 ]
    },
    "properties": {
    "name":"康曜藥師藥局",
    "addr":"新北市新店區安康路2段240號1樓",
    "district":"新店區",
    "phone":"02-86669660"
    }
  },
  {
    "type": "Feature",
    "geometry": {
       "type": "Point",
       "coordinates":  [ 121.541029688418,24.9669087017185 ]
    },
    "properties": {
    "name":"新康藥局",
    "addr":"新北市新店區北新路1段281號1樓2樓、283號1樓2樓",
    "district":"新店區",
    "phone":"02-29178179"
    }
  },
  {
    "type": "Feature",
    "geometry": {
       "type": "Point",
       "coordinates":  [ 121.541048260996,24.9669611844576 ]
    },
    "properties": {
    "name":"康宜庭市公所藥局",
    "addr":"新北市新店區北新路1段285號1樓",
    "district":"新店區",
    "phone":"02-29151709"
    }
  },
  {
    "type": "Feature",
    "geometry": {
       "type": "Point",
       "coordinates":  [ 121.540712222009,24.9863741971501 ]
    },
    "properties": {
    "name":"正升藥局",
    "addr":"新北市新店區順安街61號1樓",
    "district":"新店區",
    "phone":"02-29139493"
    }
  },
  {
    "type": "Feature",
    "geometry": {
       "type": "Point",
       "coordinates":  [ 121.543353947708,24.9733604682293 ]
    },